Country,Latitude,Longitude,SiteID,Elevation,SiteName,distance_lakes_europeDistance,distance_lakesDistance,distance_rivers_europeDistance,distance_rivers_lake_centerlinesDistance,distance_landDistance
Great Britain,51.9691,-5.0823,S1010,204,Abermawr I,1.81489096843,2.82561557987,1.66273642941,2.82561557987,0.00899077304797
Great Britain,51.68,-1.2613,S1011,124,Abingdon,4.34953601245,5.78666818238,0.290760275141,5.78666818238,0.788970468395
Great Britain,50.9969,-0.8798,S1040,0,adjacent to barrows excavated 1973-5,3.79890201553,6.00720326436,0.960166339756,6.00720326436,0.16468378214
Great Britain,56.9485,-7.5241,S1072,0,Alt Chrysal,1.80437003084,2.42957679527,1.93071159371,2.42957679527,0.0173113979794
Ireland,54.568,-7.0367,S1073,128,Altanagh,0.64116811563,0.425577039912,0.14027270048,0.425577039912,0.476693764381
Great Britain,52.5563,-0.2902,S1075,0,Alton Longville,5.46598476723,5.26159320618,0.249975544804,5.26159320618,0.44640994299
Great Britain,57.6368,-6.2042,S1081,160,An Corran,0.654730266369,1.41188304615,1.75892938465,1.41188304615,0.0226994008732
Great Britain,54.1014,-6.6173,S1087,0,Annaghmare,0.912944818541,0.411393114794,0.202493397917,0.411393114794,0.271238358091
Great Britain,53.3446,-1.2053,S1089,124,Anston Stones Cave,4.28963041701,5.10378582193,0.474781718266,5.10378582193,0.596687128904
Great Britain,51.4899,-0.2354,S1090,0,Hammersmith,4.49940051892,5.27760333061,0.677581309364,5.27760333061,0.621020699333
Great Britain,51.5011,-0.1513,S1091,0,Antler mattock series,4.54508352109,5.19281468293,0.686098410434,5.19281468293,0.537974747549
Ireland,52.8711,-8.1496,S1107,165,Ardcrony,1.01249231355,0.143276323934,0.304256956206,0.143276323934,0.633360816991
Great Britain,55.9697,-4.9439,S1108,101,Ardnadam,0.319347002021,0.95753324099,0.666053364379,0.95753324099,0.016717182777
Great Britain,53.2546,-1.9251,S1109,30,area with distinct areas of Meso and Neo occupation and structures,3.82904775803,4.54062558388,1.01229973358,4.54062558388,0.780752840853
Ireland,54.3462,-6.662,S1120,38,Armagh,0.991742322632,0.18942909597,0.077907628638,0.18942909597,0.447563911525
Great Britain,52.6056,1.30667,S1122,7,Arminghall,4.18421901894,3.668966763,0.936397088846,3.668966763,0.299457355896
Great Britain,51.8561,-1.56584,S1127,122,Ascott-under-Wychwood,4.46929687092,5.43487903764,0.394284332938,5.43487903764,0.820355204165
Ireland,52.933,-8.1885,S1130,272,Ashleypark,0.949963239815,0.082907590123,0.347972440575,0.082907590123,0.619853475025
Great Britain,55.4749,-5.1728,S1150,253,Auchareoch,0.750239192325,1.31450780283,1.20666789971,1.31450780283,0.0410728377398
Great Britain,51.3193,-2.7507,S1167,205,Aveline's Hole,3.92951776502,4.79375025186,0.30955714642,4.79375025186,0.165411494462
Great Britain,51.2279,-2.6703,S1182,113,Badger Hole,3.82812148626,4.91457619548,0.389058390091,4.91457619548,0.274570753177
Great Britain,57.0536,-2.4402,S1188,0,Balbridie,1.64144856346,1.92441622216,1.07513787065,1.92441622216,0.262007298372
Great Britain,56.2152,-3.153,S1189,0,Balfarg Riding School,0.937732257363,1.65726965461,0.227545455898,1.65726965461,0.0957733334494
Great Britain,54.2078,-4.6607,S1192,0,"Ballaharra, IOM",1.81088655636,1.64935113332,1.70496971565,1.64935113332,0.025956798724
Ireland,52.9805,-6.6748,S1194,0,Ballintruer More,0.196308119037,1.29646389387,0.268419182623,1.29646389387,0.556827874661
Ireland,52.1,-7.71667,S1196,0,Ballynamintra,1.55837916959,0.984969301298,0.21424752834,0.984969301298,0.0881069741848
Ireland,54.2836,-9.3866,S1197,84,Ballyglass,0.202197706466,1.29330048051,0.739709347379,1.29330048051,0.0137497709072
Ireland,55.0017,-6.4042,S1198,0,Ballymacaldrack,1.39020694521,0.26625147962,0.123547048933,0.26625147962,0.230478178577
Ireland,54.1521,-6.3728,S1199,0,Ballymacdermot,0.960155989931,0.332376020946,0.412199933285,0.332376020946,0.116296418689
Ireland,54.8216,-6.4579,S1200,0,Ballymena,1.27030871543,0.0783881011379,0.0144422851377,0.0783881011379,0.405810481506
Ireland,54.6958,-6.8475,S1201,0,Ballynagilly,0.861252337297,0.278899949982,0.287441237473,0.278899949982,0.408751788865
Ireland,54.1521,-6.3728,S1202,0,Ballyutoag,0.960155989931,0.332376020946,0.412199933285,0.332376020946,0.116296418689
Great Britain,53.2755,-1.5921,S1213,10,Bar Brook,4.04782727365,4.85435725272,0.750380354887,4.85435725272,0.964391421467
Great Britain,58.9935,-3.2079,S1220,0,Barnhouse,1.5337232263,1.9615924356,2.33439361173,1.9615924356,0.0115812348219
Great Britain,51.6811,-1.25507,S1223,108,Barrow Hills,4.35194184521,5.79150695834,0.288135233007,5.79150695834,0.791673080318
Ireland,54.702,-6.9373,S1247,124,Beaghmore,0.780398103855,0.361092257048,0.286873779387,0.361092257048,0.364940385543
Great Britain,51.4083,-1.9028,S1255,43,Beckhampton,3.98820049692,5.39686283326,0.790816234596,5.39686283326,0.594134904294
Great Britain,53.3362,-4.4604,S1256,0,Bedd Branwen,2.00976953139,2.19517057948,1.39432944013,2.19517057948,0.097046646516
Great Britain,56.5148,-4.1635,S1270,203,Ben Lawers,0.00670340958021,0.799422257946,0.190791938247,0.799422257946,0.517729961756
Great Britain,57.5231,-7.2848,S1293,432,Bharpa Carinish,1.72965861724,2.38218067031,2.40450401832,2.38218067031,0.0145649579471
Great Britain,55.6339,-3.57857,S1295,141,Biggar Common,1.03873735901,1.85648796414,0.177775798409,1.85648796414,0.383141848015
Great Britain,50.6244,-2.07063,S1316,0,Blashenwell,3.19625056635,5.76405987406,1.15719708857,5.76405987406,0.0289534971981
Great Britain,50.3333,-4,S1318,103,Bob's Cave,3.42217188049,4.77803728776,1.85157482617,4.77803728776,0.0222772193058
Great Britain,57.6018,-3.29855,S1324,170,Boghead,1.2103313058,1.06181276904,0.984181042085,1.06181276904,0.119450988276
Great Britain,55.7295,-6.4203,S1333,0,Bolsay Farm,1.13543144791,0.983850805966,0.631190407088,0.983850805966,0.019955132172
Great Britain,51.0306,-1.45223,S1355,43,Braishfield,3.67468523644,5.98354911848,0.967592820612,5.98354911848,0.11333185651
Great Britain,51.235,-2.6789,S1364,136,Bridged Pot,3.83625629639,4.90343246871,0.382161503687,4.90343246871,0.265660810998
Great Britain,51.2066,-2.41,S1365,102,Bridgemere,3.78282802538,5.12533918382,0.48342741844,5.12533918382,0.418984519046
Great Britain,50.4947,-3.6709,S1371,0,Broken Cave,3.40440229726,4.81208222178,1.50666129668,4.81208222178,0.13061331364
Great Britain,51.0167,0.9667,S1376,3,Brook,4.31794088484,4.22440820794,1.07791007241,4.22440820794,0.0242764618509
Great Britain,51.0306,-1.4523,S1377,43,Broom Hill ,3.67467122388,5.98349279176,0.967612104926,5.98349279176,0.113323113265
Great Britain,53.4519,-1.6626,S1379,25,Broomhead Moor,3.8758923013,4.73981239925,0.683935762042,4.73981239925,0.968610339507
Great Britain,55.6699,-3.4684,S1380,184,Brownsbank Farm,1.06503764333,1.88456349856,0.116863936268,1.88456349856,0.325970013652
Great Britain,51.7613,-0.0016,S1381,0,Broxbourne,4.84441742893,5.0069925855,0.516313124083,5.0069925855,0.494041954696
Great Britain,52.5515,-3.2302,S1387,87,Brynderwen Farm,3.28597528982,3.65375121827,0.177516096453,3.65375121827,0.697880885037
Great Britain,57.4735,-4.072,S1393,217,Bulnuaran of Clava,0.619086953666,0.280304548661,0.754440843672,0.280304548661,0.0654715968951
Great Britain,51.1789,-2.8685,S1402,99,Burtle Bridge ,3.80989143803,4.8023370566,0.482740811306,4.8023370566,0.139161987985
Great Britain,52.2741,-0.29459,S1403,0,Burwell,5.20066050929,5.2636123798,0.0426884633127,5.2636123798,0.684045533645
Great Britain,53.2546,-1.9251,S1406,30,Buxton 2,3.82904775803,4.54062558388,1.01229973358,4.54062558388,0.780752840853
Great Britain,56.012,-6.2377,S1424,289,Caisteal Nan Gillean II,0.871491123822,1.28806710943,0.965495207653,1.28806710943,0.0224733798081
Great Britain,56.0115,-6.24529,S1425,300,Caisteal,0.879012228356,1.28614544454,0.961541848127,1.28614544454,0.0201981311017
Great Britain,53.9922,-0.7308,S1432,0,Callis Wold,4.18466045821,4.94438369143,0.288912944847,4.94438369143,0.273980011132
Great Britain,57.0313,-6.0135,S1433,397,Camas Daraich,0.387979489406,1.04302679735,1.30845590075,1.04302679735,0.00734373882978
Great Britain,58.3812,-3.2656,S1443,0,Camster,1.20367189587,1.46173476096,1.72708520129,1.46173476096,0.088040909809
Great Britain,57.4817,-4.2486,S1446,186,Canal Road,0.582264904747,0.129297453185,0.779256431799,0.129297453185,0.0157634545706
Great Britain,53.2295,-4.2639,S1452,184,Capel Eithin,2.19899871471,2.4176170377,1.17590624949,2.4176170377,0.0517685358109
Great Britain,56.406,-5.4828,S1459,542,Carding Mill Bay,0.224981510351,0.731548261976,0.73904391764,0.731548261976,0.00389165774446
Great Britain,50.2203,-5.2471,S1462,0,Carn Brea,3.16005865409,4.05580996747,2.66996397882,4.05580996747,0.0754958184272
Ireland,54.7386,-6.8168,S1463,109,Carnanbane,0.90560538564,0.280094477097,0.299558968152,0.280094477097,0.388230678978
Great Britain,56.007,-3.543,S1469,0,Carriden,0.746783436948,1.56805202468,0.405529964861,1.56805202468,0.0358160020103
Ireland,54.0475,-8.367,S1471,53,Carrowkeel,0.437908561346,0.287355610525,0.0738800676773,0.287355610525,0.215590980563
Ireland,54.228,-8.57974,S1472,110,Carrowmore,0.429553167024,0.485633994794,0.309364983797,0.485633994794,0.0164091803574
Great Britain,55.1225,-3.6153,S1473,445,Carzield,1.31031294938,2.24271453906,0.345337135709,2.24271453906,0.134719513806
Great Britain,57.4776,-4.2267,S1485,138,Castle Street,0.581529043299,0.143337325565,0.773927911695,0.143337325565,0.0201369039328
Ireland,55.1151,-6.6644,S1486,0,Castleroe,1.22298409953,0.404650684047,0.012414966774,0.404650684047,0.0962474461999
Great Britain,50.3697,-4.1275,S1492,0,Cattedown,3.52168648372,4.68487972324,1.88804772848,4.68487972324,0.0142648168583
Great Britain,56.0847,-3.8703,S1528,0,Chapelfield,0.51090754007,1.31992269338,0.544186324341,1.31992269338,0.0393700622301
Great Britain,51.25,-2.8333,S1540,142,Chelm's Combe,3.87384832997,4.77916303375,0.403436382717,4.77916303375,0.167124524831
Great Britain,51.4314,-1.9527,S1547,72,Cherhill,4.00800467011,5.34293223886,0.736646313301,5.34293223886,0.540126509718
Great Britain,51.7036,-0.612,S1549,0,Chesham,4.55460510139,5.61990215869,0.421464739213,5.61990215869,0.902556802922
Great Britain,56.2314,-4.20353,S1559,272,Claish Farm,0.259999111152,1.00314876185,0.473069251801,1.00314876185,0.38484881707
Great Britain,56.5482,-3.3681,S1561,0,Cleaven Dyke,0.646969701377,1.27366904182,0.0185616513274,1.27366904182,0.187671490909
Great Britain,56.376,-5.437,S1562,666,Cleigh,0.17868072084,0.722748279555,0.704746754657,0.722748279555,0.0150080045309
Ireland,53.665,-7.40924,S1563,28,Clonava Townland,0.749775608099,0.445596323706,0.387404326899,0.445596323706,1.06060797546
Great Britain,56.0155,-6.23501,S1567,249,Cnoc Coig,0.868117083348,1.29201855888,0.969845310604,1.29201855888,0.0203215279937
Great Britain,56.0674,-6.21,S1568,346,Cnoc Sligeach,0.833935087942,1.34495974252,1.02742207977,1.34495974252,0.0267469568362
Great Britain,50.9774,-1.1324,S1597,34,Corhampton,3.70079913284,6.25768671198,0.975741129655,6.25768671198,0.131884195414
Great Britain,55.8,-6.4557,S1608,116,Coulererach,1.14122973099,1.05266317424,0.68293071098,1.05266317424,0.00602611815351
Great Britain,56.089,-3.90445,S1630,0,Cowie Road,0.490460489744,1.29761164067,0.568453296323,1.29761164067,0.0692107311044
Great Britain,56.1259,-5.2407,S1632,21,Crarae,0.117876447605,0.84577477593,0.675357706849,0.84577477593,0.0129913817587
Great Britain,50.5229,-2.4444,S1656,0,Culverwell,3.10322212089,5.56532539239,1.11616803435,5.56532539239,0.0101458957219
Great Britain,54.8572,-4.05159,S1657,44,Cumstoun,1.27865580548,2.19282118651,0.814670761719,2.19282118651,0.0285298335081
Ireland,55.1195,-6.0577,S1661,0,Cushendun,1.27122198254,0.445234817259,0.485634580008,0.445234817259,0.0186157487091
Great Britain,55.3546,-3.6096,S1663,306,Daer Reservoir  ,1.15848494306,2.0590708237,0.152650762527,2.0590708237,0.361286577941
Ireland,53.2708,-6.084,S1666,0,Dalkey Island,0.395566865397,1.25085524442,0.922892784455,1.25085524442,0.0146483104828
Great Britain,56.7959,-2.6107,S1667,0,Dalladies,1.41868634465,1.82124890174,0.815305102952,1.82124890174,0.180592093127
Great Britain,51.6381,-4.67632,S1673,340,Daylight Rock,2.33859102942,3.30950355431,1.35738528834,3.30950355431,0.0379346833386
Great Britain,57.2344,-2.3579,S1679,0,Deer's Den,1.77808871278,1.98476833714,1.23954648275,1.98476833714,0.293882149169
Ireland,54.2399,-5.8446,S1689,0,Dendrum Nature Reserve,1.21728154714,0.544301847324,0.676897159102,0.544301847324,0.00538065051829
Ireland,55.0017,-6.4042,S1736,0,Dooey's Cairn,1.39020694521,0.26625147962,0.123547048933,0.26625147962,0.230478178577
Great Britain,50.7,-2.4333,S1737,14,Dorchester,3.27889903529,5.44807904708,0.945898469657,5.44807904708,0.0625340739117
Great Britain,50.933,-1.99,S1740,131,Dorset Cursus,3.50828389239,5.62286008798,0.961350927029,5.62286008798,0.199173854961
Great Britain,56.6233,-2.6242,S1743,0,Douglasmuir,1.39018609851,1.87079238562,0.745145710918,1.87079238562,0.079901157063
Great Britain,51.67,-1.13,S1748,66,Drayton Cursus,4.3696823534,5.90554241277,0.291913316072,5.90554241277,0.821308463368
Great Britain,56.41,-5.4741,S1753,465,Druimvargie,0.224556206772,0.722599483532,0.729571954094,0.722599483532,0.00488205899186
Great Britain,57.2396,-7.44916,S1758,0,Dun Vulan,1.78389581944,2.49262785959,2.1756741168,2.49262785959,0.00689980434505
Great Britain,53.51,-1.7934,S1761,16,Dunford Bridge,3.74044804793,4.60033979321,0.747469116553,4.60033979321,0.920084294236
Great Britain,55.9645,-4.9387,S1762,106,Dunloskin Wood,0.315738606604,0.962881909478,0.669780235749,0.962881909478,0.0193403231617
Great Britain,55.997,-4.3528,S1763,41,Duntreath,0.183710084916,1.10927741963,0.69901618193,1.10927741963,0.146051766508
Great Britain,52.247,-0.760808,S1771,0,Earl's Barton,5.02365168983,5.7302802347,0.101858775096,5.7302802347,1.0017259866
Great Britain,51.3934,-1.908,S1772,72,Easton Down,3.9729690698,5.40144432842,0.78988823317,5.40144432842,0.598656088669
Great Britain,52.6063,1.2672,S1773,25,Eaton Heath,4.22353441452,3.70840121121,0.897427576632,3.70840121121,0.312866473915
Great Britain,57.4677,-7.3492,S1796,40,Eilean,1.7651203223,2.43216199337,2.36586098622,2.43216199337,0.0224441083583
Ireland,51.96,-10.26,S1826,414,Emlagh Bog Embayment,0.672117456179,1.99717829715,2.33046715257,1.99717829715,0.0139464009694
Great Britain,54.3139,-3.40665,S1853,534,Eskmeals,2.07370659943,2.85741166065,1.13090479829,2.85741166065,0.0043093038881
Great Britain,51.4934,-0.6314,S1860,0,Eton Wick,4.35101704681,5.66788788574,0.586881971183,5.66788788574,0.694144021439
Great Britain,52.4203,-0.762609,S1878,0,Faraday Road,5.1895510801,5.73095088136,0.265804985358,5.73095088136,0.902569463676
Ireland,52.1764,-10.4556,S1896,101,Ferriter's Cove,0.864954432846,2.08727172706,2.41675001161,2.08727172706,0.00646482791728
Great Britain,56.2767,-2.5871,S1898,0,Fife Ness,1.4601449327,2.06613903165,0.676210708286,2.06613903165,0.0103465211545
Great Britain,54.7301,-1.2623,S1901,0,Filpoke Beacon,3.31950871433,4.05571342998,0.465976178039,4.05571342998,0.022573019293
Great Britain,51.7048,-0.007,S1908,0,Fisher's Green,4.79121217477,5.0195385849,0.560042535974,5.0195385849,0.465449886669
Great Britain,50.708,-2.4191,S1911,5,Flagstones,3.28584680525,5.45269174988,0.941762175339,5.45269174988,0.0657785595768
Great Britain,49.9898,-5.219,S1913,0,Flint scatter and features 1,3.3839245221,4.23198682656,2.82534389344,4.23198682656,0.0214390904658
Great Britain,51.7541,-0.0019,S1914,0,Flint scatter in peat 2,4.83780144133,5.00817217029,0.521972198589,5.00817217029,0.489819482054
Great Britain,54.2159,-0.4141,S1916,0,Flixton,4.31049508485,5.03675268224,0.602559698121,5.03675268224,0.0539949349476
Great Britain,51.3993,-1.2812,S1942,18,food processing activity,4.07123978115,5.91568504342,0.569523995631,5.91568504342,0.515428763846
Great Britain,56.7354,-2.5463,S1944,0,Fordhouse Barrow,1.47510183462,1.90188173978,0.860541464719,1.90188173978,0.0958960697839
Great Britain,52.7615,-3.0819,S1950,94,Four Crosses,3.40164826919,3.66925159958,0.433671463783,3.66925159958,0.473226283822
Great Britain,53.1833,-1.85,S1951,42,Fox Hole Cave,3.93238355597,4.63353141319,0.999487796124,4.63353141319,0.866322646882
Great Britain,51.5659,-4.08908,S1952,38,"Foxhole Cave, Gower",2.85198020619,3.69670626845,0.898427390611,3.69670626845,0.00437224198781
Great Britain,51.091,-1.7272,S1967,156,Fussel's Lodge,3.68957072376,5.7275759397,1.02455097853,5.7275759397,0.312857593803
Great Britain,56.11,-3.93,S1978,0,Garden,0.46017803131,1.26618591783,0.577255828554,1.26618591783,0.092567085403
Great Britain,55.7229,-3.4306,S1980,188,Garvald Burn,1.04118072288,1.86257751519,0.131280131779,1.86257751519,0.268014510428
Great Britain,51.5153,-1.1352,S1983,37,Gatehampton Farm,4.2184497242,5.97890459976,0.443219108455,5.97890459976,0.667203130988
Great Britain,53.1019,-3.5281,S2002,38,Geometric industry under BA cairn,2.93369603117,3.11380615983,0.673192848744,3.11380615983,0.195539365091
Ireland,52.5196,-8.5304,S2005,79,Geroid Island,0.966536658643,0.308005326253,0.538283967066,0.308005326253,0.268809751497
Great Britain,53.22,0.14,S2010,79,Giant's Hills 2,5.34706635217,4.90220423252,0.513571363396,4.90220423252,0.185795520129
Great Britain,53.25,0.1667,S2011,11,Giants' Hills,5.3238724634,4.88122278587,0.528590326529,4.88122278587,0.145647187752
Great Britain,55.947,-5.9758,S2025,263,Glenbatrick,0.640931777103,1.25677416925,1.06198040288,1.25677416925,0.0221411336656
Ireland,54.3052,-9.458,S2026,64,Glenulra,0.260658321371,1.36658711281,0.812048182437,1.36658711281,0.00611130100715
Great Britain,55.8859,-5.2031,S2027,85,Glenvoidean,0.352259054816,1.06696247525,0.845032723745,1.06696247525,0.00986195213941
Great Britain,51.5328,-2.9228,S2036,89,Goldcliff West,3.8901817116,4.52354253094,0.27025924036,4.52354253094,0.0227456589265
Great Britain,51.5328,-2.9199,S2037,91,Goldcliff,3.89281982055,4.5257311267,0.267700147553,4.5257311267,0.0253961611272
Ireland,55.204,-6.1164,S2042,0,Goodland,1.234072213,0.502165562838,0.475332628062,0.502165562838,0.0145347583399
Great Britain,51.2667,-2.75,S2053,150,Gough's Cave,3.87736590221,4.8293455883,0.360256037979,4.8293455883,0.201472168053
Great Britain,54.0717,-1.8747,S2062,25,Grassington,3.30184332937,4.11971658954,0.31411994604,4.11971658954,0.870144999871
Great Britain,51.4049,-1.3185,S2067,8,Greenham Dairy Farm,4.06856632852,5.88125423809,0.57150343796,5.88125423809,0.508720113618
Great Britain,52.4754,0.6786,S2072,40,Grimes Graves,4.82084392183,4.29079978621,0.349411279154,4.29079978621,0.415107751433
Great Britain,50.8788,-0.4647,S2189,0,Harrow Hill,3.84852931231,5.63403606106,1.20043090601,5.63403606106,0.101950624324
Great Britain,51.3195,-2.9458,S2207,114,Haywood Cave,3.96236667708,4.64949814961,0.408627758357,4.64949814961,0.0441467156196
Great Britain,51.8686,-1.8958,S2210,93,Hazleton North,4.44789904715,5.14551913309,0.70888883649,5.14551913309,0.496566870623
Great Britain,54.3493,-4.4759,S2211,0,"Hearth, charcoal dumps and flint-knapping floor",1.67183309992,1.79625166525,1.47548975913,1.79625166525,0.041438274578
Great Britain,54.9755,-3.0937,S2212,34,Hearth,1.79850889942,2.67106608344,0.608672583003,2.67106608344,0.0145562151674
Great Britain,50.8202,-3.2605,S2224,150,Hembury,3.55555601553,4.79684667164,0.994326255763,4.79684667164,0.145393929034
Great Britain,50.7124,-1.7479,S2227,0,Hengistbury Head,3.31145666008,5.95022819604,1.28854484241,5.95022819604,0.011870105307
Great Britain,52.9435,-1.5074,S2231,85,High Furlong,4.34201658441,5.03412406095,0.966829025733,5.03412406095,1.08770285547
Great Britain,51.0053,0.1325,S2232,42,High Hurstwood,4.24445676621,5.02478941004,1.24769333945,5.02478941004,0.232996784527
Great Britain,51.1218,0.229131,S2233,97,High Rocks   ,4.39435031373,4.90088381115,1.18225398165,4.90088381115,0.331984186191
Great Britain,51.2841,0.2272,S2234,108,High Rocks Shelks,4.53206353665,4.8639297231,1.04067594827,4.8639297231,0.230904978292
Great Britain,56.6215,-3.9062,S2251,116,Home Farm Castle,0.113124800552,0.864184143861,0.107665731781,0.864184143861,0.513500406329
Great Britain,56.5361,-4.1635,S2252,281,Home Farm,0.0153968081108,0.781746355604,0.169598967273,0.781746355604,0.534444451089
Great Britain,51.4635,-0.5361,S2259,0,Horton Manor Farm,4.3583268966,5.57854286022,0.671140317743,5.57854286022,0.662245743286
Great Britain,51.5398,-2.91136,S2278,103,Human footprint series,3.89769576397,4.52759895243,0.256874556545,4.52759895243,0.0321079834309
Great Britain,53.8614,-2.0623,S2285,8,Ickornshaw Moor,3.30472907048,4.17280560416,0.522117297166,4.17280560416,0.779651738278
Great Britain,56.541,-3.424,S2294,0,Inchtuthil,0.591694561831,1.23648481758,0.00727948487189,1.23648481758,0.201892987744
Great Britain,51.3225,-3.0118,S2299,93,Intertidal peat,3.90326856894,4.59952120586,0.454470532488,4.59952120586,0.00997463282532
Great Britain,55.9997,-3.6822,S2300,18,Inveravon,0.672239303894,1.49158403588,0.473961849098,1.49158403588,0.019087430419
Great Britain,55.9304,-3.0405,S2301,0,Inveresk,1.17411478932,1.9408642436,0.292556391316,1.9408642436,0.0319288599859
Great Britain,50.9906,-0.7888,S2303,0,Iping Common,3.82532416582,5.92011844487,0.983272113914,5.92011844487,0.195442327043
Ireland,53.6344,-7.25959,S2305,26,Newlands Cross,0.837976568885,0.557354519852,0.42388820814,0.557354519852,0.924813614789
Great Britain,50.8251,0.0462,S2313,68,Itford Bottom,4.04579125762,5.15899831084,1.39033949768,5.15899831084,0.0456688613828
Ireland,52.5,-7.1667,S2332,0,Jerpoint West,0.883900361806,1.1467540364,0.225691148475,1.1467540364,0.270366973205
Great Britain,50.4664,-3.5008,S2372,0,Kent's Cavern,3.30782627319,4.93146293317,1.42171668095,4.93146293317,0.0119585952352
Great Britain,51.4861,-0.2859,S2386,0,Kew Bridge,4.47519106025,5.32803102912,0.669049596742,5.32803102912,0.655020855241
Great Britain,54.4789,-1.06,S2390,0,Kildale,3.62895750988,4.37326887832,0.430180573248,4.37326887832,0.136530960958
Great Britain,56.0985,-6.1829,S2391,277,Kildran Burn,0.802698907997,1.37762953402,1.06759250372,1.37762953402,0.00412021844081
Ireland,52.1027,-7.7373,S2392,0,Kilgreany Cave,1.57194987531,0.970844358381,0.205392544412,0.970844358381,0.108811242985
Great Britain,54.05,-0.3833,S2393,0,Kilham,4.42914123262,5.16593812624,0.48971935412,5.16593812624,0.166077517443
Great Britain,54.3152,-4.38,S2394,54,"Killeaba, IOM",1.71490511749,1.89698597225,1.4393801469,1.89698597225,0.0186109027186
Great Britain,55.4883,-5.3117,S2395,158,Kilpatrick,0.714728038417,1.21264171931,1.24736765238,1.21264171931,0.0270855311929
Great Britain,52.4214,0.768,S2396,22,Kilverstone,4.73708901527,4.20043213983,0.453429943872,4.20043213983,0.517150230881
Great Britain,51.8365,-2.6593,S2397,148,King Arthur's Cave,4.02224210004,4.53428798523,0.0185426885861,4.53428798523,0.173152256988
Great Britain,57.016,-6.28001,S2398,216,Kinloch Farm,0.604540622374,1.30770422535,1.55931910079,1.30770422535,0.0102395312393
Great Britain,57.0162,-6.2789,S2399,230,Kinloch,0.603611040489,1.30660904669,1.55829838741,1.30660904669,0.00911206343261
Great Britain,51.3255,-0.61788,S2415,0,Knap Hill,4.19969287453,5.68301150716,0.733948663395,5.68301150716,0.525711072073
Great Britain,59.3493,-2.91085,S2416,0,Knap of Howar,1.98845781333,2.4239529263,2.75642262961,2.4239529263,0.0355108800229
Ireland,54.2752,-6.1852,S2417,0,Knockiveagh,1.11571470592,0.27183083931,0.386423542243,0.27183083931,0.178843647078
Ireland,53.7051,-6.4917,S2419,0,Knowth,0.508192646247,0.78369055328,0.478671662207,0.78369055328,0.225689868625
Great Britain,52.3096,0.6143,S2583,11,Lackford Heath,4.90244193587,4.35426320809,0.403093860038,4.35426320809,0.513101687095
Great Britain,55.3094,-1.5525,S2584,0,"Lacustrine mud exposed in seacliff: multicomponent (Meso, BA) site",2.77319248133,3.46703849014,0.684024353441,3.46703849014,0.0038503116757
Great Britain,57.993,-4.40244,S2595,0,Lairg,0.0498384118928,0.601502487609,1.29614870574,0.601502487609,0.0853227665984
Great Britain,51.5481,-1.5341,S2597,68,Lambourn,4.16937393113,5.62246271424,0.540065584536,5.62246271424,0.633565297345
Great Britain,54.4629,-3.1202,S2602,479,Langdale,2.13138486794,3.06700774693,0.886228443913,3.06700774693,0.218078215785
Great Britain,52.3911,-2.3086,S2803,82,Lightmarsh Farm,4.22138950173,4.52484039641,0.489002970339,4.52484039641,0.61550593214
Great Britain,55.9754,-3.6186,S2815,58,Linlithgow,0.726655652768,1.54782938339,0.445132668988,1.54782938339,0.0459025053782
Ireland,52.1833,-8.9,S2819,165,Lisduggan North,0.602883306204,0.777474532702,0.960557575161,0.777474532702,0.450102890015
Great Britain,55.4945,-5.1126,S2821,278,Lithics working site,0.729598695517,1.37494409621,1.16933504873,1.37494409621,0.0204678528429
Great Britain,51.6656,-4.7318,S2822,258,Little Hoyle Cave,2.27852479409,3.25806803569,1.3981872007,3.25806803569,0.00707950563246
Great Britain,57.5029,-5.9927,S2829,537,Loch A Squirt,0.490121526665,1.16195987022,1.50907141388,1.16195987022,0.00417627824745
Great Britain,55.2118,-4.3877,S2830,117,Loch Doon,0.830335305765,1.81098419143,0.927017134901,1.81098419143,0.304889127553
Great Britain,54.9695,-3.6124,S2831,181,Lochhill,1.42654582096,2.37168615877,0.489612501168,2.37168615877,0.0288245069342
Great Britain,52.8504,-1.30917,S2832,3,Lockington,4.54732026462,5.2519205381,0.898167117245,5.2519205381,1.03074261719
Great Britain,53.6079,-1.9879,S2842,4,Lominot Site III,3.53213545795,4.38751753283,0.776523358374,4.38751753283,0.756548390058
Great Britain,56.3985,-5.47987,S2844,473,Lon Mor,0.216993831479,0.734868195053,0.738382121736,0.734868195053,0.0114364373823
Great Britain,51.0616,-0.8768,S2848,0,Longmoor,3.86072765338,5.98980696194,0.896614772352,5.98980696194,0.227091352764
Ireland,53.2124,-7.7766,S2856,80,Lough Boora,1.16762373053,0.275331654737,0.306342120512,0.275331654737,1.11390403469
Ireland,52.5196,-8.5304,S2857,79,Lough Gur,0.966536658643,0.308005326253,0.538283967066,0.308005326253,0.268809751497
Great Britain,56.0216,-5.7795,S2872,50,Lussa 1,0.431197948627,1.21499753317,1.16724806284,1.21499753317,0.00109635760589
Great Britain,56.0207,-5.7794,S2874,42,Lussa River,0.431478153445,1.21560161961,1.16761862104,1.21560161961,0.000781024967592
Great Britain,51.6511,-4.7687,S2877,179,Lydstep,2.26022476124,3.25275617488,1.43783389034,3.25275617488,0.0113198807414
Great Britain,56.4173,-5.4713,S2886,228,MacArthur Cave,0.229959344233,0.715427662032,0.724872849678,0.715427662032,0.0080268611549
Great Britain,56.4507,-5.3097,S2889,240,Machrie Moor,0.151753184481,0.585434822675,0.560386356187,0.585434822675,0.0138480070768
Ireland,54.9647,-5.9231,S2890,170,Mad Man's Window,1.34597575197,0.408051976346,0.564923727241,0.408051976346,0.00951782538189
Great Britain,51.834,-2.6575,S2891,163,Madawg,4.02475968019,4.53723463455,0.0154660693132,4.53723463455,0.170111387332
Great Britain,58.9965,-3.18824,S2894,0,Maeshowe,1.55119063564,1.97547563857,2.34187045169,1.97547563857,0.0209801668249
Great Britain,50.6949,-2.46723,S2902,13,Maiden Castle,3.27653181839,5.42740050942,0.943127763243,5.42740050942,0.0653760911955
Great Britain,53.6115,-1.9879,S2927,8,March Hill ,3.52962865884,4.38662643462,0.772930174143,4.38662643462,0.75777464889
Great Britain,53.6115,-1.9879,S2928,8,March Hill II,3.52962865884,4.38662643462,0.772930174143,4.38662643462,0.75777464889
Great Britain,51.3232,-1.8708,S2930,95,Marden,3.90579024701,5.4730308573,0.847339573548,5.4730308573,0.572346561097
Great Britain,53.2693,-1.2352,S2939,35,Markland Grips,4.31721820149,5.14535780778,0.55524775371,5.14535780778,0.666972099716
Great Britain,51.4021,-1.39617,S2944,13,Marsh Benham,4.04993435701,5.81758443432,0.596991303538,5.81758443432,0.489012255572
Great Britain,54.1261,-1.4154,S2947,83,Marton-le-Moor,3.57881115631,4.36912391288,0.0647783798809,4.36912391288,0.540729835038
Great Britain,56.1361,-4.0503,S2967,0,Meiklewood,0.386838850298,1.17519222687,0.583476017159,1.17519222687,0.214121272414
Great Britain,55.6506,-3.2635,S2972,22,Meldon Bridge,1.19955861203,2.02097158666,0.00760322300081,2.02097158666,0.329442471002
Great Britain,54.9915,-2.61106,S2985,61,Midgeholme Moss,2.12446536778,2.94244034905,0.595891375504,2.94244034905,0.411090317692
Great Britain,57.0045,-2.49025,S2987,0,Midtown,1.57984583172,1.88409555533,1.00790358239,1.88409555533,0.253215489653
Great Britain,51.4422,-1.85798,S2997,38,Millbarrow,4.02543940762,5.41343126693,0.826305414057,5.41343126693,0.612800023009
Great Britain,51.5803,-0.5335,S3001,0,Misbourne Viaduct,4.4675952155,5.55816253588,0.556800881914,5.55816253588,0.779037447431
Great Britain,55.5136,-5.14,S3011,201,Monamore,0.722106158193,1.36379716369,1.15943646665,1.36379716369,0.0226068241909
Great Britain,54.3478,-1.0845,S3013,0,Money Howe I,3.68715355288,4.4431705009,0.322696485571,4.4431705009,0.266363941441
Great Britain,54.3152,-3.4067,S3014,589,Monk Moors,2.07261035798,2.85718873001,1.12960444196,2.85718873001,0.00422834482984
Ireland,53.7241,-6.4862,S3015,0,Monknewtown,0.527124183661,0.764183396378,0.468683816874,0.764183396378,0.207550781256
Great Britain,56.4206,-2.8641,S3046,0,Morton A,1.16177681957,1.75519006267,0.462624016346,1.75519006267,0.0256115930781
Great Britain,56.4206,-2.8641,S3047,0,Morton B,1.16177681957,1.75519006267,0.462624016346,1.75519006267,0.0256115930781
Great Britain,53.2627,-1.1964,S3051,43,Mother Grundy's Parlour,4.3510839582,5.17408894571,0.544244051874,5.17408894571,0.642352621074
Ireland,55.113,-6.66457,S3057,0,Mount Sandel,1.2216355987,0.402809458677,0.0145206508119,0.402809458677,0.0983243448999
Ireland,53.82,-6.76,S3061,0,Moynagh Lough,0.677752686236,0.718879582684,0.244302411368,0.718879582684,0.393148636523
Great Britain,53.3044,-4.6837,S3066,0,Multiphase site,1.78451057136,2.03522069295,1.55448672352,2.03522069295,0.0103840069337
Great Britain,51.7536,-5.2009,S3081,55,Nab Head Site I,1.87778898104,2.97298131969,1.82033256857,2.97298131969,0.0100804811393
Great Britain,51.7536,-5.2009,S3082,55,Nab Head Site II,1.87778898104,2.97298131969,1.82033256857,2.97298131969,0.0100804811393
Great Britain,51.6409,-4.68108,S3092,291,Nanna's Cave,2.33314895292,3.30469508354,1.36064978455,3.30469508354,0.0325540934446
Great Britain,54.9743,-3.3047,S3112,83,Newbie Cottage,1.63676608876,2.54648769661,0.501192958151,2.54648769661,0.0398813364871
Ireland,54.8216,-6.4579,S3113,0,Newferry,1.27030871543,0.0783881011379,0.0144422851377,0.0783881011379,0.405810481506
Ireland,53.6948,-6.47555,S3114,0,Newgrange,0.497658449642,0.79221273961,0.497201081757,0.79221273961,0.224465136046
Great Britain,55.76,-6.211,S3115,0,Newton,0.934108982346,1.038006881,0.767923575625,1.038006881,0.0424712337942
Great Britain,51.172,-1.825,S3137,76,Normanton Down,3.75925341918,5.60067260327,0.951089409519,5.60067260327,0.439333998229
Great Britain,56.0818,-5.7211,S3140,586,North Carn,0.354536845617,1.1311974954,1.08661281614,1.1311974954,0.00639552968877
Great Britain,51.5655,-1.1184,S3141,34,North Stoke,4.27125552169,5.96778997293,0.390696969658,5.96778997293,0.71637495636
Great Britain,57.8117,-7.0915,S3144,0,Northton,1.53794421215,2.28835910556,2.6093189173,2.28835910556,0.0103825478569
Great Britain,51.2439,-1.52719,S3157,94,Nutbane,3.87040434695,5.79798393972,0.794042618315,5.79798393972,0.331360137162
Great Britain,51.1148,-0.8898,S3159,0,Oakhanger Warren Site VII,3.9064689956,5.99111279925,0.842059576277,5.99111279925,0.276006816039
Great Britain,51.1121,-0.8942,S3160,0,Oakhanger Warren,3.90246171482,5.99598137049,0.844088739411,5.99598137049,0.272590026413
Great Britain,51.1087,-0.9143,S3161,0,Oakhanger,3.8926317105,6.01634727117,0.844823016969,6.01634727117,0.266615289322
Great Britain,54.3125,-3.4066,S3167,477,Occupation material in alluvial sediments,2.07488523924,2.85764857127,1.13230491887,2.85764857127,0.00292225939985
Great Britain,50.8882,-0.0122,S3176,0,Offham Hill,4.06942381378,5.19638740485,1.31374585092,5.19638740485,0.107537054544
Great Britain,51.4674,-3.6371,S3179,26,Ogmore-by-Sea,3.286962857,4.06067347212,0.690246093071,4.06067347212,0.0275499981851
Great Britain,51.6342,-4.68,S3180,366,Ogof-yr-ychen,2.33830759852,3.31103613106,1.36231282171,3.31103613106,0.0360059467311
Great Britain,51.5647,-0.1877,S3201,0,Open site,4.58727126184,5.21849929877,0.614885372082,5.21849929877,0.583009005934
Great Britain,51.4998,0.377925,S3209,33,Orsett,4.79453365535,4.6721522054,0.921720451181,4.6721522054,0.0465374582997
Great Britain,53.0833,-1.85,S3215,11,Ossom's Cave,4.00632680036,4.66471728586,1.06937077508,4.66471728586,0.89118624793
Great Britain,51.7463,-1.2554,S3242,71,Oxford BT Tunnel,4.41557897128,5.75882507019,0.225502065622,5.75882507019,0.854602422182
Ireland,53.4373,-6.1593,S3244,0,Paddy's Hill,0.394791394283,1.07163044586,0.902962584053,1.07163044586,0.0291870878986
Great Britain,54.2133,-0.4234,S3247,0,Palynology monolith,4.30416472321,5.03114433008,0.595551806143,5.03114433008,0.0611672665729
Great Britain,51.5878,-4.1118,S3251,74,Parc le Breos,2.8209313514,3.66550936559,0.900737571216,3.66550936559,0.0221824547785
Great Britain,56.1437,-4.2474,S3256,83,Parks of Carden,0.280476245162,1.04462187082,0.559651708297,1.04462187082,0.318258678593
Great Britain,51.5498,-4.2546,S3267,102,Paviland Cave,2.72526684515,3.61164517155,1.03562763009,3.61164517155,0.0185236335528
Great Britain,54.2231,-0.4154,S3268,0,peat site,4.30545226573,5.03122772354,0.608062041078,5.03122772354,0.0485849616651
Great Britain,57.1243,-2.6987,S3270,0,Peel of Lumpanan,1.42075846241,1.65796711973,0.901052435156,1.65796711973,0.461814744784
Ireland,53.3667,-6.3333,S3292,0,Phoenix Park,0.219466683121,1.11865655288,0.748678028594,1.11865655288,0.116778077566
Great Britain,51.2904,-2.8663,S3300,178,Picken's Hole,3.91926687578,4.7274973666,0.383278398687,4.7274973666,0.117547886838
Great Britain,49.2486,-2.2525,S3310,6,Pinnacle,1.81944860318,6.65331319263,1.26085429202,6.65331319263,0.0105101189337
Great Britain,51.8164,-0.6463,S3315,0,Pitstone,4.64911609272,5.64175748941,0.304387687662,5.64175748941,1.01627325681
Great Britain,53.2167,-3.4667,S3356,41,Pontnewedd,2.99548807163,3.11592303451,0.777428584244,3.11592303451,0.123229441693
Great Britain,55.7334,-6.3844,S3358,0,Port Charlotte,1.10119073139,0.99070941875,0.650632051163,0.99070941875,0.0112943569981
Great Britain,51.6416,-4.6827,S3369,297,Potters Cave,2.33146042027,3.30327807234,1.36186355271,3.30327807234,0.0308031199718
Ireland,53.0328,-9.14863,S3371,55,Poulawack,0.295600444181,0.664603685289,0.947422598897,0.664603685289,0.0788627529319
Ireland,53.0455,-9.1343,S3372,54,Poulnabrone,0.280262724778,0.653293847055,0.92996678145,0.653293847055,0.0698904206598
Great Britain,53.3263,-3.4115,S3380,69,Prestatyn,2.93746156162,3.11988133701,0.883470485981,3.11988133701,0.0464830463718
Great Britain,51.8355,0.6985,S3381,29,presumed Meso pit,4.90065588535,4.30308284923,0.820662819007,4.30308284923,0.109628676905
Great Britain,51.6667,-4.9167,S3387,8,Priory Farm Cave,2.13989125175,3.17012775219,1.57137393646,3.17012775219,0.0413543528543
Great Britain,56.4033,-5.47853,S3433,512,Raschoille Cave,0.22058693275,0.730489395474,0.735713996401,0.730489395474,0.00894358429266
Great Britain,56.4034,-5.4772,S3434,498,Raschoille,0.220058174127,0.729490844082,0.734410955937,0.729490844082,0.00954528679506
Great Britain,52.3214,-0.1584,S3444,0,Rectory Farm,5.29494236604,5.1267701319,0.021612797135,5.1267701319,0.58969398776
Great Britain,51.553,-4.257,S3445,129,Red Fescue Cave,2.72144604821,3.60764688921,1.03560721328,3.60764688921,0.0155487941655
Great Britain,50.5194,-4.5846,S3446,45,Redhill Marsh,3.22529547969,4.35010209503,2.01317948691,4.35010209503,0.204289931225
Great Britain,54.98,-3.08,S3447,31,Redkirk Point,1.80669421411,2.67459862635,0.6141656253,2.67459862635,0.0188903361537
Great Britain,58.1083,-4.9416,S3453,301,Creag nan Uamh/Reindeer Cave,0.215930156532,0.924824552118,1.46648685313,0.924824552118,0.11502992176
Great Britain,54.3493,-4.4759,S3467,0,"Rhedhoo, IOM",1.67183309992,1.79625166525,1.47548975913,1.79625166525,0.041438274578
Great Britain,53.2888,-3.4628,S3468,39,Rhuddlan,2.95189692943,3.08852512067,0.848858572202,3.08852512067,0.0996885414679
Great Britain,51.6383,-0.429,S3469,0,Rickmansworth,4.56019788756,5.44664032549,0.50010363416,5.44664032549,0.822595977865
Ireland,54.5139,-5.6495,S3477,0,Ringneill Quay,1.55287040187,0.616347516341,0.778908272392,0.616347516341,0.00768400937011
Great Britain,56.6716,-5.9016,S3492,379,Risga,0.194979500717,0.9630439112,1.12958054525,0.9630439112,0.00595234407607
Great Britain,53.6466,-2.0257,S3493,9,Rishworth Drain,3.47805736544,4.34139442148,0.736425876854,4.34139442148,0.735728742472
Great Britain,52.1899,-0.1405,S3496,0,River Snail,5.17962599245,5.11183968169,0.123336966073,5.11183968169,0.712688158454
Great Britain,53.2618,-1.1994,S3501,36,Robin Hood Cave,4.34937208655,5.17298352405,0.546287881982,5.17298352405,0.645162424355
Great Britain,53.5774,-1.9547,S3521,2,Rocher Moss South,3.57720164448,4.42729375927,0.809607087481,4.42729375927,0.778488329071
Ireland,54.009,-6.2928,S3522,0,Rockmarshall,0.831532588057,0.484738055552,0.524584430002,0.484738055552,0.0145263381483
Great Britain,55.7874,-6.4336,S3523,170,Rockside,1.12510109541,1.04090573656,0.67902615119,1.04090573656,0.0183770291397
Great Britain,55.416,-3.3492,S3545,292,Rotten Bottom,1.34210063382,2.16225311472,0.130354748667,2.16225311472,0.446672139382
Great Britain,51.4355,-0.5353,S3563,0,Runnymede,4.33259753101,5.58237757907,0.692576613885,5.58237757907,0.634323703246
Great Britain,57.4753,-5.8633,S3653,415,Sand,0.393141003204,1.03594872653,1.38931147271,1.03594872653,0.00905618573131
Great Britain,53.5,-1.2,S3677,89,Scabba Wood Shelter,4.17698031771,4.98534462039,0.331255582594,4.98534462039,0.514279163296
Great Britain,60.245,-1.5393,S3700,0,Scord of Brouster,3.6194634949,3.99901923719,4.13723433976,3.99901923719,0.0177082156075
Great Britain,58.1085,-4.94038,S3701,307,Creag nan Uamh,0.214726924488,0.924335504133,1.46638000873,0.924335504133,0.114751655761
Great Britain,54.2331,-0.4176,S3703,0,Seamer Carr,4.29812915214,5.02325393606,0.615568824584,5.02325393606,0.0412757677094
Great Britain,57.0162,-6.2789,S3705,230,Seasonal/year-round occupation and working of lithics,0.603611040489,1.30660904669,1.55829838741,1.30660904669,0.00911206343261
Great Britain,54.1021,-0.1875,S3737,0,Sewerby Cottage Farm,4.56242741537,5.28489985015,0.672061620538,5.28489985015,0.0300871218298
Ireland,52.6804,-8.2307,S3739,77,Shanballyedmond,1.04988403664,0.227451340291,0.299223726332,0.227451340291,0.520523173836
Great Britain,56.0209,-6.2162,S3742,16,Shell midden assoc with raised storm beach,0.848591508855,1.29821086615,0.983492047756,1.29821086615,0.0113369219809
Great Britain,55.5996,-4.6589,S3743,547,Shewalton,0.423432610931,1.36307980603,1.02044655529,1.36307980603,0.0194937246313
Great Britain,52.429,0.4124,S3745,0,Shippea Hill,5.09019454899,4.55609893586,0.178187132251,4.55609893586,0.340522424078
Great Britain,58.2309,-6.20479,S3751,87,Shulishader,0.821057271206,1.78083843324,2.1596884207,1.78083843324,0.0223696401402
Great Britain,60.1454,-1.2058,S3760,0,Shurton Hill,3.83565083668,4.1732644296,4.21169394117,4.1732644296,0.0174932129696
Great Britain,51.5022,-1.8939,S3771,64,Silvertown,4.08249704122,5.34943615842,0.780181942178,5.34943615842,0.551807648552
Great Britain,59.0488,-3.3406,S3785,0,Skara Brae,1.46721912232,1.93490978896,2.36223724899,1.93490978896,0.00523683110287
Great Britain,56.6489,-3.7224,S3787,93,Sketewan,0.298026174186,0.951043449113,0.0594357981355,0.951043449113,0.489101734305
Ireland,54.1215,-6.4321,S3793,0,Slieve Gullion,0.925239009662,0.363321294862,0.388216846878,0.363321294862,0.127851839643
Great Britain,55.2015,-4.145,S3798,295,Smittons T1,0.928942971339,1.91166020686,0.699535846401,1.91166020686,0.3397914815
Great Britain,55.2015,-4.1466,S3800,286,Smittons,0.928178709086,1.9109801994,0.701026265128,1.9109801994,0.339533578457
Great Britain,51.4167,-1.8667,S3825,63,South Street,3.99931602972,5.42118624998,0.823609897281,5.42118624998,0.619223634077
Great Britain,53.6583,-2.0454,S3826,7,Soyland Moor,3.4557750545,4.31945610985,0.724726940371,4.31945610985,0.722607476089
Great Britain,53.3301,-3.4717,S3831,56,Splash Point ,2.91033598095,3.06332212165,0.890787765744,3.06332212165,0.0974005097523
Great Britain,52.6925,-2.4108,S3832,138,Spong Hill,3.9749463619,4.29476292861,0.695206810165,4.29476292861,0.703311141672
Great Britain,51.5658,-4.09773,S3834,41,Spurge Hole,2.84484464268,3.69153447061,0.904854924118,3.69153447061,0.0111564331217
Great Britain,56.97,-2.2434,S3835,0,Spurryhillock,1.81147893902,2.13296747376,1.18481852539,2.13296747376,0.0482465376996
Great Britain,51.4032,-0.4518,S3851,0,Staines Road Farm,4.33364650055,5.50566224512,0.732808299694,5.50566224512,0.600216778173
Great Britain,51.4326,-0.5181,S3852,0,Staines enclosure,4.33615549072,5.56590978271,0.703245800627,5.56590978271,0.632577916545
Great Britain,54.503,-1.72356,S3854,181,Stanwick,3.09651831722,3.88289325603,0.103039489517,3.88289325603,0.508754747693
Great Britain,56.061,-6.19914,S3855,393,Staosnaig,0.824261258401,1.33916516957,1.02687388476,1.33916516957,0.0219950221641
Great Britain,54.2142,-0.4234,S3856,0,Star Carr,4.30366846522,5.03057896748,0.596326730744,5.03057896748,0.0604224833982
Great Britain,55.2151,-4.3847,S3859,120,Starr 1,0.827870933177,1.80882634092,0.923256355732,1.80882634092,0.308347589742
Great Britain,54.2133,-0.423503,S3860,0,Starr Carr,4.30407880156,5.03106419405,0.595499397136,5.03106419405,0.0612247979907
Great Britain,53.0667,-0.8667,S3866,0,Staythorpe,4.72195718241,5.5318501406,0.636163331229,5.5318501406,0.644309826481
Great Britain,51.1789,-1.8262,S3876,94,Stonehenge,3.76600583053,5.59552032335,0.946817110587,5.59552032335,0.444327577357
Ireland,53.0865,-8.2847,S3877,80,Stoney Island,0.802904769571,0.0158087823693,0.487524021357,0.0158087823693,0.623385588942
Great Britain,57.4818,-4.1902,S3878,135,Stoneyfield,0.591998398815,0.175812704035,0.775995573828,0.175812704035,0.0108301477368
Great Britain,51.2716,-2.00014,S3886,68,Strawberry Hill,3.84588409711,5.40117352636,0.749726497131,5.40117352636,0.53307609635
Great Britain,54.566,-0.8615,S3887,0,Street House Farm,3.74457026299,4.46871376395,0.633542697693,4.46871376395,0.0737749042697
Great Britain,55.9147,-4.2723,S3902,88,Summerston,0.293265267804,1.22069564909,0.784829195813,1.22069564909,0.209820572156
Ireland,53.4006,-7.6103,S3909,58,Sutton,0.97399390147,0.273533007332,0.26589718182,0.273533007332,1.20960653475
Great Britain,51.1585,-2.8266,S3914,81,Sweet Track,3.7825208562,4.84672553166,0.485879681506,4.84672553166,0.185370393807
Great Britain,55.4756,-2.8148,S3918,143,Synton Moss,1.63489967108,2.43381411289,0.115954599736,2.43381411289,0.5093202146
Ireland,52.4042,-8.6113,S3936,40,Tankardstown Site ,0.945463221337,0.443223542922,0.62586536827,0.443223542922,0.302977811894
Ireland,53.58,-6.6123,S3938,0,Tara,0.401135176343,0.928043331585,0.519246901002,0.928043331585,0.385719629394
Great Britain,56.1234,-5.4981,S3957,358,Temple Wood,0.134827129688,0.961971815388,0.874823927542,0.961971815388,0.0442776376967
Great Britain,51.3975,-1.2769,S3965,15,Thatcham II,4.07044517978,5.92027796315,0.570595537662,5.92027796315,0.515150477628
Great Britain,51.3975,-1.2783,S3966,17,Thatcham III,4.07013209044,5.91909797292,0.570820976839,5.91909797292,0.514683672366
Great Britain,51.3975,-1.2783,S3967,17,Thatcham IV,4.07013209044,5.91909797292,0.570820976839,5.91909797292,0.514683672366
Great Britain,51.3966,-1.2769,S3968,15,Thatcham Site III,4.0695680129,5.92076229695,0.571483985427,5.92076229695,0.514302454398
Great Britain,51.3975,-1.2726,S3969,17,Thatcham V,4.07140967081,5.92390281799,0.569924063012,5.92390281799,0.516605321885
Great Britain,51.3975,-1.2783,S3970,17,Thatcham,4.07013209044,5.91909797292,0.570820976839,5.91909797292,0.514683672366
Great Britain,55.8228,-2.605,S3972,0,The Dunion,1.60278094651,2.32567583728,0.228783388602,2.32567583728,0.180658261367
Great Britain,53.3086,-1.206,S3977,69,Thorpe Common,4.31424582277,5.13182817874,0.506913722442,5.13182817874,0.619384001892
Great Britain,50.4938,-3.6709,S3980,0,Three Holes Cave,3.40359220407,4.81283160636,1.50733177731,4.81283160636,0.130184429561
Great Britain,51.6358,-0.445,S4000,0,Tolpits Lane,4.55201715108,5.4628312115,0.501127341202,5.4628312115,0.823401197959
Great Britain,51.638,-0.429,S4001,0,Tolpitts Lane,4.55991885889,5.4466806917,0.500403613996,5.4466806917,0.822301660463
Ireland,54.7509,-6.4777,S4003,0,Toome Bay,1.22913657846,0.00714649564472,0.0053953405824,0.00714649564472,0.469765195497
Great Britain,50.4932,-3.6677,S4008,0,Tornewton Cave,3.40165883586,4.81510380108,1.50564721064,4.81510380108,0.127086040539
Ireland,53.7218,-6.4501,S4018,0,Townley Hall,0.525134387562,0.763241249737,0.496240732105,0.763241249737,0.187976229348
Great Britain,53.1824,-4.4665,S4046,137,Trwyn Du,1.99520176105,2.28122617314,1.30621282707,2.28122617314,0.0153877483733
Great Britain,51.5803,-0.5335,S4050,0,"Tufa with soils, animal bones, and flint-knapping",4.4675952155,5.55816253588,0.556800881914,5.55816253588,0.779037447431
Great Britain,58.5347,-3.6009,S4052,0,Tulloch of Assery A,0.951156314651,1.36106271105,1.81661640623,1.36106271105,0.0910012065854
Great Britain,58.5346,-3.6026,S4053,0,Tulloch of Assery B,0.949632040793,1.36005155468,1.81633381827,1.36005155468,0.0919334302634
Great Britain,57.5851,-3.5239,S4054,67,Tulloch Wood,1.01052980228,0.838317334904,0.891143816957,0.838317334904,0.0777400057885
Ireland,54.4531,-7.81,S4055,89,Tully,0.0111842970275,0.278897495865,0.034244936852,0.278897495865,0.3613279729
Great Britain,56.4903,-5.86527,S4074,306,Ulva Cave,0.303606358958,0.994653554661,1.09869937731,0.994653554661,0.0362949652156
Great Britain,50.9124,-3.4439,S4077,84,Underlies presumptive Neo earthen long barrow,3.70170999561,4.60922597658,1.04981589381,4.60922597658,0.234769371512
Great Britain,56.1394,-5.48399,S4081,216,Upper Largie,0.114291476498,0.940853962579,0.854188495884,0.940853962579,0.0466924105182
Great Britain,51.5325,-2.97031,S4088,96,Uskmouth  ,3.84714192733,4.48800059921,0.313153303192,4.48800059921,0.0192698936167
Great Britain,51.5325,-2.9588,S4089,109,Uskmouth 8,3.857589771,4.49663885176,0.302665467142,4.49663885176,0.0134561695887
Great Britain,53.2302,-2.1993,S4182,75,Walker's Heath,3.66749449588,4.28681612214,1.15852991675,4.28681612214,0.515038210718
Great Britain,51.4632,-0.1932,S4186,0,Wandsworth,4.49290990558,5.24055956185,0.712030617881,5.24055956185,0.577818103732
Great Britain,53.5809,-1.9547,S4196,0,Warcock Hill South,3.57476531612,4.42641104518,0.806124659156,4.42641104518,0.779509845031
Great Britain,53.5845,-1.9517,S4197,3,Warcock Hill,3.57441792762,4.42840978421,0.802850667372,4.42840978421,0.783439615095
Great Britain,55.0096,-3.09125,S4198,192,Warden's Dykes,1.77996303383,2.64359895722,0.584587639965,2.64359895722,0.0483527961963
Great Britain,57.0258,-2.4102,S4199,0,Wardend ,1.66267898841,1.95875473199,1.08891725163,1.95875473199,0.223793066023
Great Britain,51.4091,-1.4248,S4208,12,Wawcott III,4.05130966523,5.7897943011,0.601246676165,5.7897943011,0.492701033082
Great Britain,51.4055,-1.4177,S4209,12,Wawcott,4.04911860355,5.79770593468,0.601778753031,5.79770593468,0.489769245666
Great Britain,51.5664,-1.5958,S4210,85,Wayland's Smithy,4.17826019458,5.56067478792,0.568947993757,5.56067478792,0.661025175012
Great Britain,53.6205,-2.0121,S4211,7,Waystone Edge,3.50600444057,4.36095371873,0.762820525484,4.36095371873,0.738314869483
Great Britain,54.6805,-1.2244,S4215,0,West Hartlepool,3.37872805305,4.1168077383,0.452168564255,4.1168077383,0.033134436769
Great Britain,51.5647,-0.1877,S4216,0,West Heath,4.58727126184,5.21849929877,0.614885372082,5.21849929877,0.583009005934
Great Britain,50.8409,-0.7543,S4220,0,Westhampnett,3.69906401914,5.92346793013,1.1368940364,5.92346793013,0.0639296816823
Great Britain,51.0395,-4.24013,S4221,69,Westward Ho,3.06244410512,4.04687223837,1.39201736203,4.04687223837,0.0167162316328
Great Britain,51.0383,-4.2396,S4222,87,Westwood Ho,3.06365088861,4.04817325657,1.39259859777,4.04817325657,0.017703030814
Great Britain,53.1035,-1.8566,S4223,38,Wetton Mill,3.98688321215,4.65200383459,1.05949806918,4.65200383459,0.878976926034
Great Britain,53.2672,-1.2023,S4226,38,Whitwell Long Cairn,4.34367271066,5.16693153507,0.542569472049,5.16693153507,0.643642566802
Great Britain,51.7729,-0.4055,S4232,0,Willington,4.69410208258,5.40681485824,0.366642620136,5.40681485824,0.852298682974
Great Britain,51.4401,-1.8748,S4235,40,Windmill Hill,4.02200231273,5.40096266503,0.81032924722,5.40096266503,0.599639322426
Great Britain,51.567,-4.285,S4241,38,Worms Head Cave,2.69056066895,3.5801000429,1.04989291844,3.5801000429,0.0113413932125
Great Britain,50.9366,-1.9915,S4245,141,Wyke Down,3.51179397739,5.61938239711,0.957736769107,5.61938239711,0.202308073245
Great Britain,55.5908,-5.50719,S4307,32,Achnasavil,0.620151373134,1.14544782793,1.19662705167,1.14544782793,0.028485492799
Great Britain,52.23,-0.92,S4333,0,Briar Hill,4.96433168408,5.84191107336,0.176300455189,5.84191107336,1.13856198742
Great Britain,52.394,-2.762,S4334,127,Bromfield,3.77565054703,4.13250050079,0.323312551257,4.13250050079,0.708745289226
Great Britain,51.17,-1.81,S4344,79,Coneybury 'Anomaly',3.75874104849,5.61379262077,0.965296734119,5.61379262077,0.425993664272
Great Britain,50.913,-2.222,S4380,33,Hambledon Hill,3.48286732874,5.45907584461,0.832044713282,5.45907584461,0.248990690991
Great Britain,51.1831,-1.81,S4392,109,W59 King Barrow Ridge,3.77177491635,5.60583750612,0.959301740278,5.60583750612,0.433866822885
Great Britain,53.26,-1.94,S4412,23,Lismore Fields,3.81498088898,4.52479771802,1.02115935025,4.52479771802,0.765304548856
Great Britain,52.865,-4.047,S4428,123,Moel y Gerddi,2.43105041357,2.80723218651,0.7811029251,2.80723218651,0.0567964259439
Great Britain,51.21,-1.86,S4451,143,Robin Hood's Ball,3.79389302295,5.54977594043,0.902542733005,5.54977594043,0.482953870468
Great Britain,50.7,-2.544,S4455,0,Rowden,3.28903842933,5.36933451716,0.924957936827,5.36933451716,0.120376072373
Ireland,52.404,-8.611,S4472,37,Tankardstown,0.945666596058,0.4433000485,0.625598872441,0.4433000485,0.303293769306
Great Britain,51.733,0.739639,S4483,0,The Stumble,4.88422492689,4.27635424836,0.926271792252,4.27635424836,0.0193683370737
Great Britain,51.441,-1.876,S4501,41,Windmill Hill - external features,4.02280637734,5.3994630408,0.808962004608,5.3994630408,0.598143779538
Great Britain,52.468,1.4514,S4522,5,Ditchingham Broome Heath,4.0526035911,3.5180669427,1.10001807349,3.5180669427,0.265820229667
Great Britain,52.929,0.496719,S4536,28,"Redgate Hill, Hunstanton",4.98306456621,4.50609121205,0.195921300835,4.50609121205,0.0119117102466
Great Britain,57.8083,-7.0939,S4537,0,Northon,1.5401594449,2.28929364914,2.60989305072,2.28929364914,0.00858657673348
Ireland,52.2513,-9.6539,S4634,104,Ballycarty,0.185825499058,1.32559114911,1.67961198293,1.32559114911,0.0838158767776
Great Britain,54.0948,-0.285883,S4667,0,Caythorpe,4.48428895223,5.21258488308,0.591174165089,5.21258488308,0.0837667052533
Great Britain,51.1735,-1.8097,S4678,78,Coneybury henge,3.76225347705,5.6119035937,0.963947599665,5.6119035937,0.427831361637
Great Britain,51.1932,-1.78673,S4707,75,Durrington Walls,3.78422008965,5.61825644478,0.974877127899,5.61825644478,0.422191304624
Great Britain,52.6534,-0.323585,S4730,0,Etton,5.39361457615,5.2992439183,0.351908314089,5.2992439183,0.407147943167
Great Britain,52.6481,-0.313222,S4731,0,Etton - A151 bypass site,5.40457164498,5.28861534566,0.342826372737,5.28861534566,0.401815995107
Great Britain,52.6493,-0.319622,S4732,0,Etton Landscape Site 1,5.39931616886,5.29506949642,0.34652942652,5.29506949642,0.406284382575
Great Britain,52.6493,-0.319622,S4733,0,Etton Landscape Site 2,5.39931616886,5.29506949642,0.34652942652,5.29506949642,0.406284382575
Great Britain,52.6493,-0.319622,S4734,0,Etton Landscape Site 4,5.39931616886,5.29506949642,0.34652942652,5.29506949642,0.406284382575
Great Britain,52.6493,-0.319622,S4735,0,Etton Landscape Site 6,5.39931616886,5.29506949642,0.34652942652,5.29506949642,0.406284382575
Great Britain,52.6493,-0.319622,S4736,0,Etton Landscape Site 7,5.39931616886,5.29506949642,0.34652942652,5.29506949642,0.406284382575
Great Britain,50.932,-1.9992,S4740,106,Fir tree field,3.50677850535,5.61651534005,0.955624437161,5.61651534005,0.196134383778
Great Britain,52.3441,0.068639,S4777,3,Haddenham Causewayed enclosure,5.40328607324,4.89956495472,0.0409177848985,4.89956495472,0.485476791455
Great Britain,52.3714,0.083108,S4778,2,Haddenham Long Barrow,5.42352285441,4.88502201478,0.0513827915162,4.88502201478,0.454785047582
Great Britain,55.8747,-6.33256,S4819,0,Killelan farm,1.00010405504,1.13712281307,0.800073526621,1.13712281307,0.00872497564466
Great Britain,59.326,-3.00571,S4856,0,Links of Noltland,1.90158666892,2.34991584762,2.70694698733,2.34991584762,0.00841748774873
Great Britain,50.7089,-2.41207,S4882,10,Mount Pleasant,3.28625745858,5.45711844424,0.942759747656,5.45711844424,0.0647893571507
Great Britain,59.3233,-2.9878,S4917,0,Pierowall quarry,1.91321982033,2.35795179751,2.70926763028,2.35795179751,0.00326006134911
Great Britain,59.2236,-2.67017,S4930,0,Pool,2.1055516452,2.47944108623,2.72212526211,2.47944108623,0.00220676233429
Great Britain,51.4158,-1.85759,S4991,54,Silbury Hill,3.99916097737,5.42910834791,0.832666462036,5.42910834791,0.627303311405
Great Britain,58.994,-3.20775,S5007,0,Stones of Stenness,1.53414618319,1.96208692848,2.33491464362,1.96208692848,0.0110758521117
Great Britain,59.309,-2.42508,S5034,0,Tofts Ness,2.35794041962,2.71069547257,2.90118716751,2.71069547257,0.00145495704404
Great Britain,51.4086,-1.85111,S5063,53,West Kennet Long Barrow,3.99252695075,5.43857219267,0.840711216174,5.43857219267,0.623311952156
Great Britain,51.4125,-1.84314,S5064,58,West Kennett Palisade,3.99709253313,5.44277264138,0.847485738228,5.44277264138,0.621522319792
Great Britain,50.9371,-1.99209,S5067,119,Wyke down henge 2,3.51226025985,5.61860903172,0.956966325949,5.61860903172,0.202656852833
Ireland,55.036,-7.27964,S5085,265,Thornhill,0.685856203369,0.806301960806,0.543938192169,0.806301960806,0.0272067289471
Ireland,54.6701,-6.15631,S5087,0,Ballyharry,1.50653665674,0.0860130804006,0.263525475998,0.0860130804006,0.232061294705
Ireland,54.6519,-8.0821,S5088,188,Drummeny Lower,0.182674938073,0.487599887715,0.158686294934,0.487599887715,0.0391076731601
Ireland,55.0253,-7.2698,S5089,275,Enagh Townland,0.684892276274,0.799641645989,0.537382577034,0.799641645989,0.028551982418
Ireland,54.0035,-6.76032,S5090,0,Coolfore ,0.849626828967,0.543651666787,0.0772728477539,0.543651666787,0.388143820381
Ireland,52.2576,-9.70116,S5091,95,Cloghers,0.213360183024,1.36403706262,1.72548251628,1.36403706262,0.0376810244022
Great Britain,51.8433,-2.10593,S6139,74,Crickley Hill,4.41376047435,4.98211545263,0.503356075358,4.98211545263,0.286144290874
Great Britain,51.4033,-1.07551,S6157,67,Abbots Farm,4.12577889889,6.08795905595,0.546763686066,6.08795905595,0.553625767103
Great Britain,51.2277,-1.73216,S6158,86,Ablington,3.82464498352,5.64128030179,0.914327892607,5.64128030179,0.407961712909
Great Britain,51.4203,-1.51961,S6159,15,Aldbourne,4.04557264951,5.70452043531,0.635289618757,5.70452043531,0.50494926052
Great Britain,53.2931,-2.21605,S6160,141,Alderley Edge,3.60830956735,4.25141829587,1.09783561998,4.25141829587,0.487277363521
Great Britain,51.4055,-1.13011,S6161,48,Aldermaston,4.11352040259,6.04030862116,0.550353697544,6.04030862116,0.557324059861
Great Britain,50.8126,0.143608,S6162,103,Alfriston,4.08754492155,5.0699788387,1.43229594283,5.0699788387,0.0533631123905
Great Britain,50.7074,-2.42207,S6163,10,Alington Avenue,3.28545867941,5.45097623225,0.941568734506,5.45097623225,0.0662144304514
Great Britain,56.4168,-3.53357,S6164,0,Almond Bank,0.509575637173,1.2502055391,0.0797802995733,1.2502055391,0.216165677664
Great Britain,52.2961,-2.8139,S6165,101,Ambrey,3.74588024679,4.14181818251,0.217317550603,4.14181818251,0.645105657238
Great Britain,51.1792,-2.83128,S6166,101,Amesbury,3.80371404109,4.82907411801,0.468035698745,4.82907411801,0.174969833114
Great Britain,53.389,-4.34157,S6167,0,Amlwch,2.13340723712,2.26569220824,1.34197523632,2.26569220824,0.0311298859619
Great Britain,54.2123,-1.11054,S6168,0,Ampleforth Moor,3.75078358497,4.51790706099,0.209195832654,4.51790706099,0.403096621792
Great Britain,53.2488,0.33,S6169,3,Anderby Creek,5.1608361639,4.72046053106,0.483504805871,4.72046053106,0.0255614338408
Great Britain,54.2383,-1.10538,S6170,0,Antofts Windypit,3.73839038428,4.50345213858,0.233692848842,4.50345213858,0.376827863752
Great Britain,53.5979,-0.525031,S6171,0,Appleby,4.59418297818,5.36619599647,0.226121922027,5.36619599647,0.0799308869024
Great Britain,51.9095,0.983643,S6172,32,Ardleigh,4.6062348637,4.01112669503,0.947024128145,4.01112669503,0.0660401686021
Great Britain,56.5695,-6.00182,S6173,724,Ardnacross,0.333929057885,1.08957995361,1.22910104719,1.08957995361,0.0300180212539
Great Britain,55.8872,-6.33614,S6174,1,Ardnave,0.999520265978,1.14904605304,0.809740298614,1.14904605304,0.00551094365785
Great Britain,51.1648,-2.82245,S6175,82,Ashcott Heath,3.78803309359,4.84539099142,0.478563955392,4.84539099142,0.187321686945
Great Britain,56.1874,-3.04418,S6176,0,Ashgrove Farm,1.04880527425,1.7554024708,0.331472940223,1.7554024708,0.0213151823825
Great Britain,53.2791,-1.22754,S6177,40,Ash Tree Cave,4.31671413745,5.14217267774,0.543008893113,5.14217267774,0.65479667516
Great Britain,52.8574,-1.37318,S6178,34,Aston,4.4973213751,5.18920554245,0.916030589009,5.18920554245,1.06267147181
Great Britain,52.0086,-0.624495,S6179,0,Aston Mill,4.83786533641,5.60435568527,0.160827183725,5.60435568527,1.0833060923
Great Britain,56.01,-5.20533,S6180,357,Auchategan,0.236189921038,0.946827269833,0.742151871587,0.946827269833,0.0475896890093
Great Britain,51.4156,-1.85738,S6181,54,Avebury,3.99897900975,5.42939558715,0.832918565827,5.42939558715,0.627588805031
Great Britain,51.4857,0.224009,S6182,0,Aveley Marshes,4.70491832417,4.82602067599,0.872152906537,4.82602067599,0.163795908194
Great Britain,56.216,-3.15945,S6183,0,Balbirnie,0.93149532366,1.65210397118,0.222213521191,1.65210397118,0.0984418960606
Great Britain,51.199,-1.49758,S6184,94,Balksbury,3.83139480717,5.84808251599,0.823132694041,5.84808251599,0.282563357851
Great Britain,54.3709,-4.47411,S6185,0,Ballachrink Farm,1.65040754279,1.79397288553,1.45834867737,1.79397288553,0.0259968786588
Great Britain,54.1625,-4.55051,S6186,0,Ballaquinney Beg,1.85518641039,1.76721692514,1.66545510441,1.76721692514,0.048318904168
Great Britain,55.3972,-5.66905,S6187,104,Balloch Hill,0.850212420751,0.893104172479,0.957494734607,0.893104172479,0.0688625442458
Great Britain,57.566,-3.98958,S6188,185,Balnagowan,0.642705534829,0.392256185802,0.845471014879,0.392256185802,0.0369310059435
Great Britain,56.6376,-2.64404,S6189,0,Balneaves,1.37080716343,1.84688858291,0.73174734007,1.84688858291,0.0963561772799
Great Britain,50.8044,-2.0485,S6190,4,Barford Farm,3.37697675734,5.66130414438,1.02030260751,5.66130414438,0.0651606668167
Great Britain,52.1154,1.12596,S6191,50,Barham,4.42583386044,3.85066382502,0.917540691414,3.85066382502,0.0925710375874
Great Britain,52.678,-0.371302,S6192,0,Barholm,5.34305611126,5.34824932132,0.395630042039,5.34824932132,0.434793205379
Great Britain,54.0099,-0.211346,S6193,0,Barmston,4.59353078301,5.32396918763,0.600833311557,5.32396918763,0.0152196017031
Great Britain,52.6493,-0.449238,S6194,0,Barnack,5.31147227537,5.42451065128,0.415333550564,5.42451065128,0.517091169528
Great Britain,56.0437,-3.32,S6195,0,Barns Farm,0.881248578155,1.67499838152,0.322228792165,1.67499838152,0.0180346361205
Great Britain,54.7464,-4.57467,S6196,0,Barsalloch,1.27096466642,1.66455474431,1.29322524643,1.66455474431,0.0149091247228
Great Britain,51.2615,-1.08497,S6197,212,Basingstoke,3.98678564662,6.15394623314,0.68887279116,6.15394623314,0.411706649934
Great Britain,51.7109,-1.96961,S6198,82,Bath Gate,4.28616021895,5.16890527219,0.657730605719,5.16890527219,0.41431215973
Great Britain,52.7499,0.464227,S6199,25,Bawsey,5.01810031981,4.51981108984,0.081811504136,4.51981108984,0.081811504136
Great Britain,51.4078,-1.90366,S6200,44,Beckhampton Road,3.98764039126,5.39646160548,0.790118928073,5.39646160548,0.593720415095
Great Britain,50.8251,0.0462,S6201,68,Beddingham,4.04579125762,5.15899831084,1.39033949768,5.15899831084,0.0456688613828
Great Britain,51.3849,-0.135901,S6202,0,Beddington,4.44722805279,5.19841948128,0.801987076854,5.19841948128,0.524881919922
Great Britain,53.1277,-2.69053,S6203,300,Beeston Castle,3.45762230333,3.86129539291,0.966976440768,3.86129539291,0.190837029164
Great Britain,51.2362,1.14048,S6204,76,Bekesbourne,4.33102232588,3.99233277106,1.16863271433,3.99233277106,0.142635743066
Great Britain,51.5408,-1.52123,S6205,54,Bellbarrow,4.16420530316,5.63723718015,0.537537703329,5.63723718015,0.625047762735
Great Britain,56.473,-5.37587,S6206,376,Benderloch,0.211752364095,0.609457327546,0.618549203944,0.609457327546,0.0142029926424
Great Britain,57.6041,-1.95482,S6207,0,Berrybrae,2.29662943909,2.39315323147,1.78234398265,2.39315323147,0.0709058037117
Great Britain,51.2985,-2.7402,S6208,182,Gorsey Bigbury,3.90743531176,4.81541788126,0.327051715941,4.81541788126,0.186468845923
Great Britain,52.8859,-0.326349,S6209,0,Billingborough,5.22452439645,5.31945573305,0.572077526058,5.31945573305,0.335150848397
Great Britain,50.5804,-1.25915,S6210,0,Binnel Point,3.28414863764,6.41099286012,1.38231278374,6.41099286012,0.0201607192332
Great Britain,51.8268,-2.09868,S6211,103,Birdlip bypass,4.39740438468,4.99725430269,0.51175820267,4.99725430269,0.289457216528
Great Britain,55.1084,-3.66023,S6212,353,Birkhall,1.29008830062,2.22919342974,0.377146560902,2.22919342974,0.144238425186
Great Britain,54.5927,-3.08811,S6213,318,Birkswood,2.0576374583,2.98095279696,0.866383725897,2.98095279696,0.341744206681
Great Britain,54.4524,-3.43456,S6214,296,Birrel Sike,1.94483065145,2.81441914087,0.990980665452,2.81441914087,0.0710358648853
Great Britain,50.7867,0.0814091,S6215,34,Bishopstone,4.03206109779,5.13713062097,1.43737129125,5.13713062097,0.00885319348089
Great Britain,56.4426,-5.36992,S6216,143,Black Crofts,0.18714472528,0.628613607552,0.620437320122,0.628613607552,0.0182910497238
Great Britain,50.8687,-0.445123,S6217,0,Blackpatch,3.8477932259,5.61785309744,1.2181416222,5.61785309744,0.0818586874376
Great Britain,55.6458,-3.6654,S6218,139,Blackshouse Burn,0.955230876438,1.79762257666,0.243484498891,1.79762257666,0.364515110249
Great Britain,51.7463,0.80973,S6219,15,Blackwater Site,4.81299672226,4.20506428469,0.960889388223,4.20506428469,0.010602650612
Great Britain,56.1396,-4.06013,S6220,0,Blair Drummond,0.380513271253,1.166029083,0.578027961261,1.166029083,0.224288644385
Great Britain,51.1938,-2.79863,S6221,127,Blakeway Farm,3.81273815556,4.84283908051,0.443549295795,4.84283908051,0.204437887878
Great Britain,53.9082,-2.64396,S6222,46,Bleasdale,2.86245858718,3.67972670405,0.672499835911,3.67972670405,0.211387025146
Great Britain,55.8049,-6.29821,S6223,0,Borraichill Mor,0.993254278823,1.07339864193,0.755247264477,1.07339864193,0.0185498517514
Great Britain,52.5075,-4.05532,S6224,262,Borth,2.49011499471,3.02936984602,0.668787875488,3.02936984602,0.00888036035305
Great Britain,52.4284,-1.94704,S6225,125,Bournville,4.45665894414,4.8275433249,0.792601763119,4.8275433249,0.787141847763
Great Britain,54.9539,-3.95685,S6226,19,Bow Hill,1.23726336101,2.21672696943,0.67929739496,2.21672696943,0.142627192358
Great Britain,54.1198,-0.226511,S6227,0,Boynton,4.5200743666,5.24331613511,0.652428149746,5.24331613511,0.0413322036795
Great Britain,56.6324,-2.60646,S6228,0,Boysack Mill,1.40818462316,1.88345293376,0.764940913078,1.88345293376,0.0906677235845
Great Britain,54.6487,-2.18289,S6229,0,Bracken Rigg,2.66633287659,3.47432003926,0.208414474785,3.47432003926,0.732018501679
Great Britain,56.6153,-2.77566,S6230,0,Bractullo,1.23857518419,1.73660921214,0.60191537985,1.73660921214,0.134994432848
Great Britain,51.7435,0.897342,S6231,1,Bradwell Sea,4.72872522595,4.11887075439,1.01777121145,4.11887075439,0.0151479610509
Great Britain,56.1048,-5.25827,S6232,139,Brainport Bay,0.127974438073,0.871454532434,0.702751393951,0.871454532434,0.0387834152699
Great Britain,54.6085,-3.46173,S6233,221,Brainthwaite,1.80431774901,2.75777516836,0.833931738453,2.75777516836,0.104927220968
Great Britain,52.7223,-3.04838,S6234,149,Breiddin,3.43959358159,3.71785102362,0.426733427915,3.71785102362,0.513901057111
Great Britain,53.0974,-3.53098,S6235,41,Brenig,2.93089197251,3.11341816237,0.669391877453,3.11341816237,0.199498628817
Great Britain,51.4911,-0.317426,S6236,0,Brentford,4.46705855163,5.35829837127,0.657826047505,5.35829837127,0.66154524631
Great Britain,51.5926,-4.18014,S6237,68,Breos Cwm Gower,2.76156020237,3.62059017255,0.950519223688,3.62059017255,0.0389715909349
Great Britain,51.107,-1.26715,S6238,99,Bridget's Farm,3.79022819816,6.08952854403,0.857636426524,6.08952854403,0.245042053942
Great Britain,53.5554,-0.502364,S6239,0,Brigg Raft,4.63908060078,5.41222664147,0.267049156778,5.41222664147,0.125350844337
Great Britain,53.5554,-0.500852,S6240,0,Brigg Track,4.6402252124,5.41329822862,0.268319277772,5.41329822862,0.125692124431
Great Britain,54.7923,-4.10462,S6241,110,Brighouse Bay,1.3173949593,2.13601907559,0.898208016275,2.13601907559,0.0111261538727
Great Britain,51.224,-1.70784,S6242,87,Brigmerston Down,3.82394807632,5.66304283736,0.903020197559,5.66304283736,0.389643070001
Great Britain,52.1148,-4.04924,S6243,65,Bryn Maen,2.62448340008,3.30530292282,0.619452627809,3.30530292282,0.221190240517
Great Britain,50.4804,-3.60272,S6244,0,Bulleigh Meadow,3.36228178914,4.86199513636,1.47305612089,4.86199513636,0.0631480680623
Great Britain,51.4245,-1.02474,S6245,41,Burghfield,4.16010598115,6.06715674326,0.52309068774,6.06715674326,0.577843150431
Great Britain,51.4333,-1.00297,S6246,46,Burghfield Cottages,4.17468242051,6.04428275384,0.514340705078,6.04428275384,0.586191050938
Great Britain,52.4619,0.386273,S6247,0,Burnt Fen,5.11321213775,4.58275820253,0.136183315164,4.58275820253,0.306484956318
Great Britain,51.1034,-1.27007,S6248,108,Burntwood Farm,3.78602721782,6.08918784539,0.861501286418,6.08918784539,0.240750811006
Great Britain,50.899,-0.576,S6249,0,Bury Hill,3.82096035307,5.73622003913,1.13669400016,5.73622003913,0.0971853203936
Great Britain,53.2282,0.238385,S6250,1,Butterbump,5.25097200177,4.80679158248,0.482486055161,4.80679158248,0.10376239697
Great Britain,51.0244,-2.53156,S6251,18,Cadbury Castle,3.61049643401,5.15394798519,0.607501870367,5.15394798519,0.368766593932
Great Britain,53.2746,-1.59057,S6252,13,Cairnfield,4.0495557402,4.85607315827,0.74990542477,4.85607315827,0.963415990577
Great Britain,51.5934,-2.74064,S6253,111,Caldicot Castle,4.0328266426,4.62320343807,0.0786426252105,4.62320343807,0.0240733649497
Great Britain,55.3632,-1.90691,S6254,0,Callaly Moor,2.43658359971,3.1547520681,0.433332528781,3.1547520681,0.284437844353
Great Britain,52.4655,-3.84346,S6255,148,Camddwr,2.70568089739,3.21832247638,0.454372482001,3.21832247638,0.13344209231
Great Britain,51.6274,0.777379,S6256,0,Canewdon,4.86339194012,4.25621482639,1.03339983087,4.25621482639,0.0673743849026
Great Britain,51.5041,-0.708907,S6257,0,Cannon Hill,4.33395297808,5.74284767217,0.533971992944,5.74284767217,0.6998268274
Great Britain,51.9932,-5.01691,S6258,269,Carne Coch,1.84991413017,2.83387900527,1.59468418723,2.83387900527,0.0321943550953
Great Britain,52.5853,-3.49241,S6259,135,Carneddau,3.02202440841,3.41904806882,0.175449459674,3.41904806882,0.45582748162
Great Britain,52.0186,-4.82763,S6260,168,Carreg Coetan,1.98665045667,2.90504709698,1.40370804664,2.90504709698,0.00464639645317
Great Britain,52.2906,-0.941316,S6261,0,Castle Brampton,5.01760779993,5.79818021335,0.240210440481,5.79818021335,1.12274040783
Great Britain,52.6598,-2.38444,S6262,146,Castle Farm,4.01674693756,4.33286302135,0.675958938176,4.33286302135,0.744684609751
Great Britain,57.6121,-1.85269,S6263,0,Castle Hill,2.39204220715,2.4955840619,1.81426706948,2.4955840619,0.0232703631257
Great Britain,53.5546,-0.508422,S6264,0,Castlethorpe,4.63502003238,5.40850023992,0.262430354959,5.40850023992,0.124946831588
Great Britain,50.5453,-5.00444,S6265,464,Cataclews,2.97577406994,4.04264535214,2.26709745238,4.04264535214,0.00930065051488
Great Britain,50.6309,-4.62751,S6266,124,Cataclews Barrow,3.10997869076,4.23076595364,1.95427850221,4.23076595364,0.0855821067747
Great Britain,52.9566,-3.49771,S6267,82,Cefn Caer Euni,2.96994018744,3.21165883227,0.524748868412,3.21165883227,0.343944903727
Great Britain,53.2518,-3.91727,S6268,37,Cefn Coch,2.54623129495,2.70070808206,0.965602975814,2.70070808206,0.058193891432
Great Britain,51.717,-4.01527,S6269,139,Cefn Drum,2.83441378761,3.62471000612,0.744015086205,3.62471000612,0.06884285947
Great Britain,51.7097,-3.54592,S6270,7,Cefn Glas,3.25136133626,3.9469004933,0.439775849496,3.9469004933,0.261280517452
Great Britain,51.5625,-2.7993,S6271,106,Chapeltump,3.99095134915,4.59840302422,0.144354822919,4.59840302422,0.00156974520225
Great Britain,51.286,-2.72996,S6272,146,Charterhouse Warren,3.89362233659,4.83137912836,0.337130352386,4.83137912836,0.20234291018
Great Britain,55.5276,-1.84157,S6273,0,Chatton Sandyford,2.41686158851,3.1048760468,0.332207288602,3.1048760468,0.108228399693
Great Britain,58.4218,-4.18492,S6274,65,Chealamy,0.433435310168,1.03968152941,1.7080080443,1.03968152941,0.114267675657
Great Britain,51.1806,-2.87709,S6275,99,Chilton,3.81310740511,4.79496081841,0.4848833767,4.79496081841,0.130459256475
Great Britain,50.7358,-1.7775,S6276,1,Christchurch,3.3308745968,5.91252534515,1.25104423859,5.91252534515,0.0167113973084
Great Britain,50.8629,-0.419723,S6277,0,Church Hill,3.85359424549,5.59494288479,1.23484081538,5.59494288479,0.0647382754559
Great Britain,50.7082,-2.43909,S6278,28,Church Street,3.28751348634,5.4382102168,0.936534565833,5.4382102168,0.0707519505031
Great Britain,50.164,-5.54022,S6279,0,Chysauster,3.10997657679,3.88011035475,2.55484822144,3.88011035475,0.0405789908697
Great Britain,50.8589,-0.384335,S6280,0,Cissbury,3.86560917329,5.56195904971,1.25505946984,5.56195904971,0.0583507851275
Great Britain,51.7965,-1.3764,S6281,130,City Farm,4.44096495951,5.62881833612,0.251689963248,5.62881833612,0.882940969714
Great Britain,57.1671,-7.40273,S6282,0,Cladh Hallan,1.7209068942,2.43882527896,2.09224846957,2.43882527896,0.0200998756215
Great Britain,56.5791,-5.75028,S6283,316,Claggan,0.183555551537,0.852604263008,0.977378735701,0.852604263008,0.00722214649533
Great Britain,54.1981,-4.39169,S6284,0,Clayhead Cairns,1.82988562345,1.91260258496,1.53965094291,1.91260258496,0.00349070193513
Great Britain,53.5674,-0.0307127,S6285,0,Cleethorpes,4.99833589919,5.11422396562,0.708398513129,5.11422396562,0.0161840227783
Great Britain,51.1529,1.38514,S6286,68,Cliffe,4.09621897516,3.78439343548,1.00309895075,3.78439343548,0.00140160622145
Great Britain,54.9829,-3.0752,S6287,72,Clochmabane Stane,1.808786017,2.67473904523,0.615169941805,2.67473904523,0.0201194135103
Great Britain,51.8516,-0.247371,S6288,0,Codicote,4.82615194319,5.24130211087,0.322955628657,5.24130211087,0.747056325789
Great Britain,51.4578,-3.24804,S6289,157,Coed Y Cwmdda,3.6311883412,4.33576749049,0.586131843359,4.33576749049,0.0622789916424
Great Britain,51.181,-0.358946,S6290,0,Coldharbour,4.16712060079,5.4583776262,0.96037031723,5.4583776262,0.360932815294
Great Britain,51.4193,0.354578,S6291,47,Coldharbour Road,4.7135402441,4.71069347497,0.984535685084,4.71069347497,0.0451689982621
Great Britain,56.3051,-3.15083,S6292,0,Collessie,0.907925987512,1.59731393596,0.183046110584,1.59731393596,0.070471265066
Great Britain,52.7474,-3.15418,S6293,105,Collfryn,3.33151835932,3.61382928509,0.378713895837,3.61382928509,0.491795852463
Great Britain,50.5096,-4.58127,S6294,44,Colliford Reservoir,3.2351866684,4.36041351026,2.01888212994,4.36041351026,0.197640143949
Great Britain,50.7965,0.233712,S6295,154,Combe Hill,4.12412187076,4.98937140621,1.47917237419,4.98937140621,0.0494803571531
Great Britain,51.9535,-1.77734,S6296,125,Condicote,4.54179093645,5.20310494011,0.591684541965,5.20310494011,0.632264832566
Great Britain,56.6301,-3.08245,S6297,0,Cookston Farm,0.932460317654,1.45918635328,0.315504617082,1.45918635328,0.179700878685
Great Britain,52.3607,-3.74626,S6298,264,Copa Hill,2.82724349402,3.35995536548,0.348595924388,3.35995536548,0.275659282448
Great Britain,51.881,-3.44281,S6299,179,Corn Du,3.27406485412,3.90345507832,0.241229231438,3.90345507832,0.455881640999
Great Britain,51.3256,1.35477,S6300,13,Cottington Lane,4.23971822446,3.7615520023,1.17773850735,3.7615520023,0.0228489649656
Great Britain,52.059,-0.709017,S6301,0,Cotton Valley,4.85920161227,5.68571495416,0.0716423542955,5.68571495416,1.09638015958
Great Britain,51.4446,-2.81162,S6302,250,Court Hill,4.02809834449,4.66531839899,0.225874897454,4.66531839899,0.0294110319438
Great Britain,54.0791,-0.540132,S6303,0,Cowlam,4.28442466916,5.02777605682,0.421854703831,5.02777605682,0.237609200041
Great Britain,51.7538,-4.48643,S6304,286,Coygan Camp,2.41801691578,3.31210404482,1.13758474836,3.31210404482,0.0226793760937
Great Britain,50.8265,-2.05233,S6305,2,Crab Farm,3.3989031791,5.64398975811,1.00043974221,5.64398975811,0.0875849484786
Great Britain,58.3708,-3.40539,S6306,0,Craigna Feich,1.06648103527,1.35436772484,1.68381654731,1.35436772484,0.108149508552
Great Britain,50.9294,-2.00142,S6307,103,Cranborne Chase,3.50406345314,5.61651967512,0.955945905007,5.61651967512,0.193145266833
Great Britain,51.4536,-0.966538,S6308,0,Crane Wharf,4.20458919726,6.00515975863,0.496271876539,6.00515975863,0.606624762043
Great Britain,54.7522,-2.00001,S6309,321,Crawley Edge,2.72433307222,3.51270170854,0.364793675521,3.51270170854,0.617521159556
Great Britain,56.5095,-4.33698,S6310,110,Creag Caillich,0.0442599875734,0.706775677921,0.186745744262,0.706775677921,0.515208161814
Great Britain,56.5013,-4.33812,S6311,119,Creagna Caillich,0.0410279575412,0.711810751605,0.194881176618,0.711810751605,0.509443596093
Great Britain,52.56,0.76,S6312,42,Cressingham,4.7327621498,4.21237124875,0.40262698618,4.21237124875,0.414538870192
Great Britain,53.2627,-1.19635,S6313,43,Creswell Crags,4.351122175,5.17411930241,0.544223788988,5.17411930241,0.642316043159
Great Britain,50.3317,-5.15208,S6314,0,Crig Mennis,3.09718731214,4.05620480797,2.52368130163,4.05620480797,0.0185993817102
Great Britain,51.6369,0.650577,S6315,0,Crouch Estuary,4.96289530959,4.37952007442,0.953681940339,4.37952007442,0.0960028520878
Great Britain,51.5655,-1.11841,S6316,34,Crowmarsh,4.27125301785,5.9677813456,0.39069885385,5.9677813456,0.71637539042
Great Britain,55.8841,-5.91971,S6317,0,Cula'Bhaile,0.619278541853,1.21012774681,1.05372665606,1.21012774681,0.0129499536679
Great Britain,57.6387,-3.69029,S6318,79,Culbin Sands,0.83809901909,0.695580457532,0.916240446007,0.695580457532,0.0166794064643
Great Britain,55.7251,-6.46636,S6319,171,Cultoon,1.17928318435,0.977540982261,0.609042271111,0.977540982261,0.0252292310624
Great Britain,51.5258,0.148108,S6320,3,Dagenham Marshes,4.70320007284,4.89356811835,0.794998790039,4.89356811835,0.247344290785
Great Britain,51.2817,-1.05931,S6321,206,Daneshill,4.01334113458,6.12508375584,0.667272819842,6.12508375584,0.432806665845
Great Britain,50.6399,-4.6266,S6322,111,Davidstow Moor Site,3.10329007205,4.22290231798,1.94688924351,4.22290231798,0.0775641856787
Great Britain,55.014,-3.79084,S6323,103,Deanston Burn,1.28225309842,2.24152928424,0.526414808397,2.24152928424,0.130463517123
Great Britain,56.0259,-3.97704,S6324,0,Denny,0.515670691915,1.30626658952,0.664408553828,1.30626658952,0.161136171607
Great Britain,50.9555,-2.06551,S6325,106,Deverel-Rimbury,3.52732257704,5.55071236748,0.893083228484,5.55071236748,0.217187672763
Great Britain,51.74,-1.406,S6326,131,Devil's Quoit,4.38004784787,5.63143266576,0.311876686529,5.63143266576,0.82405798461
Great Britain,51.739,-1.40471,S6327,127,Devil's Quoits,4.37929441948,5.63305106305,0.311677521968,5.63305106305,0.823156382287
Great Britain,50.8778,-0.200293,S6328,0,Devil Dyke,3.96749361076,5.37980504064,1.2821974333,5.37980504064,0.0471229049296
Great Britain,52.0521,1.27036,S6329,26,Devil Ring Barrow,4.29606509543,3.71149739853,1.07315004655,3.71149739853,0.0580358113582
Great Britain,53.268,-3.54756,S6330,31,Dinorben,2.91629423353,3.02077480647,0.839880191694,3.02077480647,0.0302682886863
Great Britain,56.4146,-5.47126,S6331,249,Distillery Cave,0.227490209899,0.717325379448,0.725570177584,0.717325379448,0.00696804850729
Great Britain,51.6485,-1.15872,S6332,73,Dorchester Cursus,4.34192818683,5.89125748317,0.31342340053,5.89125748317,0.791700402551
Great Britain,51.92,1.26497,S6333,0,Dovercourt Bay,4.32965088113,3.73052449744,1.14479314485,3.73052449744,0.0156689757164
Great Britain,50.9335,-2.00158,S6334,88,Down Farm,3.50814915282,5.61373175293,0.952889880994,5.61373175293,0.197138240075
Great Britain,51.382,1.4279,S6335,40,Down Park Estate,4.22989691185,3.67578413584,1.21666205505,3.67578413584,0.0108669222874
Great Britain,55.9717,-2.44226,S6336,0,Dryburn Bridge,1.68777349514,2.35784643599,0.342125983959,2.35784643599,0.0169920922785
Great Britain,56.0614,-3.41824,S6337,0,Dunfermline,0.79435131982,1.60266104018,0.318913464281,1.60266104018,0.036611924287
Great Britain,54.7775,-1.57864,S6338,0,Durham Milburnegate,3.03389859905,3.78876074247,0.384585909778,3.78876074247,0.256362869386
Great Britain,51.1973,-1.83683,S6339,72,Durrington down,3.78332011082,5.57589548766,0.928950509877,5.57589548766,0.463813225016
Great Britain,51.7027,-5.15243,S6340,93,Dyfed,1.94806871568,3.03863760289,1.78606505136,3.03863760289,0.00684295257911
Great Britain,53.2621,-1.60118,S6341,6,Eaglestone,4.05053183211,4.84924690378,0.766224792212,4.84924690378,0.978481550669
Great Britain,51.1755,-1.73676,S6342,57,Earles Farm,3.77226911156,5.66880762519,0.95932288162,5.66880762519,0.373239321616
Great Britain,53.6402,0.131541,S6343,1,Easington,5.08605178422,4.96310322772,0.860136420006,4.96310322772,0.00311825929006
Great Britain,54.1647,-0.56316,S6344,0,East Heslerton Wold,4.21602007715,4.95453256157,0.491966585247,4.95453256157,0.195801450965
Great Britain,51.1903,-2.90304,S6345,83,East Huntspill,3.82741197579,4.76953612856,0.48825291653,4.76953612856,0.102795593777
Great Britain,51.0758,-1.28895,S6346,87,Easton Lane,3.75469165686,6.08955874268,0.890962829808,6.08955874268,0.209151973933
Great Britain,51.9867,-0.204238,S6347,0,Ebbsfleet,4.96746302322,5.18662632063,0.216349969411,5.18662632063,0.794585455394
Great Britain,51.1615,-2.78806,S6348,90,Eclipse,3.77916571216,4.87264746375,0.471606760448,4.87264746375,0.221253933072
Great Britain,53.1206,-1.85206,S6349,31,Ecton Hill,3.9772295349,4.65090254761,1.04419187901,4.65090254761,0.878679699606
Great Britain,51.409,-0.303183,S6350,0,Eden Walk,4.39774638091,5.35837878694,0.74115020852,5.35837878694,0.578690633594
Great Britain,51.1826,-2.85853,S6351,101,Edington Burtle,3.8117651474,4.80698564463,0.475252073957,4.80698564463,0.147718245319
Great Britain,50.9033,-1.93457,S6352,83,Edmondsham,3.48222412031,5.68431874287,1.02160297464,5.68431874287,0.189304862325
Great Britain,51.4329,-0.538265,S6353,0,Egham Sports Field,4.32910079084,5.58573674912,0.692608046318,5.58573674912,0.631576338953
Great Britain,54.4484,-3.54239,S6354,268,Ehenside Tarn,1.88613063092,2.70737091142,0.995403042993,2.70737091142,0.0604347615202
Great Britain,55.5868,-2.70607,S6355,36,Eildon Hill North,1.64641594987,2.42004265252,0.0276180611195,2.42004265252,0.433590888857
Great Britain,53.2414,-4.43843,S6356,28,Eithin,2.02510501975,2.26805016463,1.31804527771,2.26805016463,0.065296573417
Great Britain,57.9074,-3.9966,S6357,0,Embo,0.450507282183,0.61956309719,1.18682327994,0.61956309719,0.00837530894952
Great Britain,53.0216,-4.07854,S6358,237,Emrys,2.38627633507,2.68847574023,0.899580713444,2.68847574023,0.0949443610753
Great Britain,52.3628,0.564565,S6359,21,Eriswell,4.94562927769,4.403572672,0.330531457542,4.403572672,0.443742873323
Great Britain,54.7007,-3.49763,S6360,772,Ewanrigg,1.7088063177,2.66037752306,0.741535721594,2.66037752306,0.0220577537388
Great Britain,53.162,-1.86537,S6361,61,Fawfieldhead,3.93765089882,4.62538202298,1.02520695106,4.62538202298,0.855722088181
Great Britain,52.5037,0.493179,S6362,1,Feltwell,5.0031537532,4.47691751485,0.17786129866,4.47691751485,0.286112054274
Great Britain,52.6387,-0.207213,S6363,0,Fen Dyke,5.48446745074,5.18226087244,0.304264969474,5.18226087244,0.329665775186
Great Britain,52.574,-0.209843,S6364,0,Fengate,5.51091652471,5.18194994854,0.241889170343,5.18194994854,0.382199662754
Great Britain,51.637,0.604332,S6365,4,Fenn Creek,4.9972454135,4.42510094181,0.924298340702,4.42510094181,0.10940421895
Great Britain,50.8103,-0.454149,S6366,0,Ferring,3.79124622768,5.64242469797,1.26682047181,5.64242469797,0.0571744360794
Great Britain,51.4281,-1.02898,S6367,34,Field Farm,4.16238005165,6.07078466745,0.519588106484,6.07078466745,0.581234271959
Great Britain,52.3566,0.434935,S6368,4,Fifty Farm,5.07515480319,4.5332179348,0.25073289139,4.5332179348,0.414853507187
Great Britain,52.6708,-1.72343,S6369,104,Fisherwick,4.40180914255,4.92963266718,0.890679714881,4.92963266718,1.11404616385
Great Britain,50.7074,-2.41925,S6370,5,Flagstones House,3.28525885466,5.45300143294,0.942302044676,5.45300143294,0.065257355141
Great Britain,53.4176,-1.38756,S6371,24,Flat Dyke,4.10509405779,4.93528504847,0.506057202498,4.93528504847,0.719128617842
Great Britain,57.5984,-4.49349,S6372,208,Fodderty,0.441872476853,0.252991296491,0.907551489724,0.252991296491,0.0682937808296
Great Britain,51.853,-3.83836,S6373,120,Foel Fawr,2.92570039828,3.64034478285,0.520891022192,3.64034478285,0.229745431728
Great Britain,50.706,-2.4277,S6374,5,Fordington Farm,3.28446855908,5.44791035822,0.941482806481,5.44791035822,0.067171414307
Great Britain,57.3292,-1.9784,S6375,0,Forvie,2.1666288465,2.35959518157,1.52400450724,2.35959518157,0.0101003168267
Great Britain,51.7239,-2.3113,S6376,127,Frocester Court,4.29537406911,4.88088788408,0.329039403415,4.88088788408,0.0791886418623
Great Britain,52.2296,-3.23003,S6377,35,Fronddyrys,3.35960394466,3.84220500043,0.0917805496824,3.84220500043,0.713862157142
Great Britain,52.2442,-3.94824,S6378,158,Fulbrook,2.67104876805,3.28576776714,0.514044186914,3.28576776714,0.201756008337
Great Britain,56.1739,-3.40627,S6379,0,Gairneybank,0.734718919043,1.51920736241,0.209098120986,1.51920736241,0.149733329957
Great Britain,50.6669,-1.3745,S6380,0,Gallibury Down,3.33723449125,6.26688318169,1.30756228899,6.26688318169,0.0610760591394
Great Britain,54.0015,-0.753415,S6381,0,Garrowby,4.1611565966,4.92153263159,0.295097185898,4.92153263159,0.289575748164
Great Britain,51.1634,-2.76663,S6382,107,Glastonbury,3.77769907786,4.88697566924,0.464646663391,4.88697566924,0.241522442021
Great Britain,54.4631,-0.558894,S6383,0,GnipeHowe,4.05558219651,4.77004448117,0.740717175794,4.77004448117,0.0148338462982
Great Britain,52.8708,-4.06537,S6384,181,Goedog,2.41213153194,2.78916290426,0.799711399756,2.78916290426,0.0483982778619
Great Britain,51.7396,0.723238,S6385,6,Goldhanger,4.89856152745,4.29159635894,0.911038555575,4.29159635894,0.0116608989362
Great Britain,53.0194,-4.29465,S6386,367,Graenog,2.17063463388,2.51705792196,1.07292347821,2.51705792196,0.0595580741797
Great Britain,53.0488,-3.53223,S6387,44,Graig Fechan,2.93089884865,3.13581136953,0.622257501441,3.13581136953,0.247457459778
Great Britain,55.9738,-2.89579,S6388,0,Grainfoot,1.27518958151,2.00995539732,0.351802637995,2.00995539732,0.0219560766076
Great Britain,56.6539,-3.75364,S6389,91,Grandtully,0.268750429395,0.927246521536,0.0680464583942,0.927246521536,0.517663853963
Great Britain,54.4952,-1.08279,S6390,0,Great Ayton Moor,3.60093835171,4.34539806545,0.426623780045,4.34539806545,0.125238164311
Great Britain,51.5926,-4.18014,S6391,68,Great Carn,2.76156020237,3.62059017255,0.950519223688,3.62059017255,0.0389715909349
Great Britain,54.4556,-3.13383,S6392,564,Great Langdale,2.1279720711,3.06513329224,0.899754216717,3.06513329224,0.206160087553
Great Britain,53.3291,-3.86216,S6393,0,Great Orme,2.60550098839,2.71219377763,1.00412705889,2.71219377763,0.00755440268983
Great Britain,51.4977,-3.09491,S6394,65,Great Wharf,3.7496335753,4.41891128294,0.441564834764,4.41891128294,0.00948460858444
Great Britain,55.6777,-3.25321,S6395,59,Green Knowe,1.18535721645,2.00626025435,0.0217441946275,2.00626025435,0.304090563155
Great Britain,54.9585,-3.95239,S6396,13,Greenlaw,1.23560527309,2.21464577416,0.672890246623,2.21464577416,0.142076791912
Great Britain,52.2462,-0.72117,S6397,0,Grendon   ,5.03428965854,5.69066907511,0.0874801286007,5.69066907511,0.972071351548
Great Britain,50.7136,-2.43488,S6398,38,Greyhound Yard,3.29257919729,5.43746481857,0.932328701317,5.43746481857,0.0760868372322
Great Britain,53.9709,-0.755857,S6399,0,Grimthorpe,4.17833339876,4.94078124623,0.26440351342,4.94078124623,0.261764493217
Great Britain,54.1191,-0.23879,S6400,0,Grindale Barrow,4.51017367368,5.23412910475,0.642611020214,5.23412910475,0.041660352855
Great Britain,54.2335,-0.319847,S6401,0,Gristhorpe,4.38003277891,5.09966038173,0.670292996405,5.09966038173,0.00335908752491
Great Britain,51.9185,-1.86185,S6403,98,Guiting,4.50002463994,5.1483881783,0.677469357314,5.1483881783,0.541366574513
Great Britain,51.8654,-3.14599,S6404,56,Gwernvale,3.55518935161,4.13818785051,0.197868700152,4.13818785051,0.346973863713
Great Britain,50.23,-5.37959,S6405,0,Gwithian,3.10181699038,3.95074752396,2.59733409151,3.95074752396,0.0130234749587
Great Britain,52.3528,0.0690328,S6406,1,Haddenham,5.41141103345,4.89913108045,0.0380532789105,4.89913108045,0.477247403366
Great Britain,51.3526,0.448824,S6407,1,Halling,4.70675658375,4.63263488935,1.08507120915,4.63263488935,0.107350760202
Great Britain,50.8789,-0.692144,S6408,0,Halnaker Hill,3.75738096143,5.85364193041,1.11630728598,5.85364193041,0.118773143496
Great Britain,50.9573,-0.977591,S6409,0,Hampshire,3.72887114987,6.11148119921,0.990906389767,6.11148119921,0.110520686484
Great Britain,54.5194,-2.64736,S6410,63,Hardendale Nab,2.43184768012,3.29763541613,0.419589675755,3.29763541613,0.308792154207
Great Britain,53.8434,-1.88599,S6411,8,Harden Moor,3.44955968045,4.29313025102,0.54209016667,4.29313025102,0.950754729781
Great Britain,55.6786,-3.25007,S6412,54,Harehope Cairn,1.18671492457,2.00754262844,0.0217128625473,2.00754262844,0.303739151576
Great Britain,53.2152,-1.56867,S6413,10,Harland,4.10648385812,4.89343853303,0.777655340173,4.89343853303,0.972081850926
Great Britain,50.5374,-4.99638,S6414,423,Harlyn Bay,2.98662899613,4.05387419607,2.26721566248,4.05387419607,0.0107889619519
Great Britain,52.8195,0.61513,S6415,63,Harpley,4.86547500338,4.37604196854,0.236198252322,4.37604196854,0.156367787603
Great Britain,54.4541,-3.10603,S6416,489,Harrison Stickle,2.14733910582,3.08238248198,0.871941571724,3.08238248198,0.216308200723
Great Britain,52.1279,0.0717558,S6417,15,Harston-Manor Farm,5.20736106563,4.90240631127,0.223407260324,4.90240631127,0.690369482536
Great Britain,51.1373,-0.564772,S6418,0,Hascombe,4.04475999846,5.66878025505,0.92447258482,5.66878025505,0.335256159144
Great Britain,51.3497,-2.37481,S6419,113,Hay Bath,3.92385609605,5.06009378183,0.394931256043,5.06009378183,0.338538488211
Great Britain,50.739,-3.43011,S6420,74,Hayes Farm,3.53421571958,4.75390696591,1.16414630739,4.75390696591,0.0677283072282
Great Britain,50.4215,-3.75279,S6421,0,Hazard Hill,3.37583816924,4.82889997702,1.61586972897,4.82889997702,0.162827861252
Great Britain,51.4095,-0.685694,S6422,0,Heatherwood,4.25329699546,5.73500187736,0.627385948788,5.73500187736,0.618545092662
Great Britain,50.4227,-4.73019,S6423,134,Helman Tor,3.22291800296,4.33405839528,2.179643728,4.33405839528,0.0869856430683
Great Britain,52.867,-1.32105,S6424,4,Hemington Field,4.52718046225,5.23524209474,0.916291743988,5.23524209474,1.02394548356
Great Britain,51.4042,-1.90223,S6425,46,Hemp Knoll,3.98415181775,5.39973654073,0.792456818887,5.39973654073,0.596969537749
Great Britain,52.52,0.404159,S6426,0,Hemplands Farm,5.09060686985,4.56640190185,0.112107196384,4.56640190185,0.249154414051
Great Britain,51.4255,-1.04342,S6427,32,Heron House,4.15588329403,6.08545326766,0.522773083087,6.08545326766,0.5773706107
Great Britain,54.1759,-0.594945,S6428,0,Heslerton,4.18357970064,4.92307716044,0.493133246217,4.92307716044,0.217454252948
Great Britain,51.7415,0.679891,S6429,3,Heybridge,4.94021238855,4.33419994365,0.88388757491,4.33419994365,0.028457166426
Great Britain,54.2741,-3.3915,S6430,198,High Hyton,2.1150643437,2.87798599943,1.1701761922,2.87798599943,0.0100783976901
Great Britain,50.6653,-3.26937,S6431,47,High Peak,3.41099529171,4.91117783943,1.12700393513,4.91117783943,0.00217264815375
Great Britain,52.4883,0.498194,S6432,2,Hill Close,4.99943300678,4.47147430301,0.192159403507,4.47147430301,0.302265299523
Great Britain,53.4402,-0.170761,S6433,0,Hoe Hill,4.96705556589,5.23939508701,0.613706996523,5.23939508701,0.155472043921
Great Britain,53.0617,-1.63438,S6434,14,Hognaston,4.16879788175,4.8760774889,0.937518196197,4.8760774889,1.10418719794
Great Britain,52.2573,-2.25788,S6435,141,Holt,4.29705080218,4.63495357191,0.438524843196,4.63495357191,0.495415947765
Great Britain,51.1638,-2.83672,S6436,89,Honeygore,3.78946454656,4.83574334658,0.484364378645,4.83574334658,0.174068986612
Great Britain,50.8268,-0.161076,S6437,0,Hove,3.94184451843,5.35661923221,1.33982860586,5.35661923221,0.0122942643538
Great Britain,55.4472,-1.62529,S6438,0,Howick Heugh,2.64659539462,3.32718373962,0.535584536185,3.32718373962,0.0535001766352
Great Britain,52.9291,0.495243,S6439,28,Hunstanton,4.98454092421,4.50756823589,0.195162206303,4.50756823589,0.0105175952099
Great Britain,52.3373,-0.590825,S6440,0,Huntingdon Race course,5.16034589841,5.55905726994,0.120895006204,5.55905726994,0.814174356526
Great Britain,52.3301,-0.588129,S6441,0,Irthlingborough,5.15433597201,5.55640967905,0.113280505565,5.55640967905,0.81707150539
Great Britain,58.7453,-2.91586,S6442,0,Isbister,1.65775202334,1.96582039551,2.18607845369,1.96582039551,0.00588700263292
Great Britain,50.8273,0.045245,S6443,67,Itford Hill,4.04715668962,5.15925073646,1.38795847669,5.15925073646,0.0475746584328
Great Britain,54.6434,-2.08059,S6444,0,Jackscar Cave,2.74134934162,3.54276249207,0.247651835043,3.54276249207,0.745624174836
Great Britain,51.777,1.12,S6445,4,Jaywick,4.50474399124,3.89370829124,1.13658964011,3.89370829124,0.0161357770188
Great Britain,53.1297,-0.150953,S6446,0,Jeffs Farm,5.18409171526,5.17499817423,0.645983115638,5.17499817423,0.277679208817
Great Britain,51.229,-1.58749,S6447,102,Kalis Corner,3.84585046861,5.75746157775,0.834810099184,5.75746157775,0.333585746848
Great Britain,56.9281,-2.33191,S6448,0,Keabog,1.71625399997,2.05481303023,1.12213195418,2.05481303023,0.103192340801
Great Britain,54.3569,-0.979692,S6449,0,Kemp Howe,3.76556344681,4.51438670375,0.39928766305,4.51438670375,0.241623719539
Great Britain,55.782,-6.35953,S6450,133,Kentraw,1.05863185764,1.0417546752,0.70522281167,1.0417546752,0.0135597345107
Great Britain,51.4791,-0.300584,S6451,0,Kew,4.46284176489,5.3436755609,0.672793331979,5.3436755609,0.648556712721
Great Britain,50.5293,-4.79717,S6452,82,Killibury,3.09703080182,4.21613513134,2.14072337272,4.21613513134,0.0500468430573
Great Britain,50.7453,0.229859,S6453,93,Kilncombe,4.07972106227,5.00940890603,1.5252891719,5.00940890603,0.00439181978228
Great Britain,50.7835,-2.22698,S6454,0,Kingston,3.35342818835,5.54136340165,0.94180309476,5.54136340165,0.167249477428
Great Britain,51.9754,-1.56902,S6455,143,King Stone,4.58703574824,5.37322756014,0.383599468196,5.37322756014,0.839062871363
Great Britain,54.0031,-0.498535,S6456,0,Kirkburn,4.36279579891,5.10909075079,0.378737990074,5.10909075079,0.275212245413
Great Britain,55.3004,-2.03937,S6457,0,Kirkhill,2.35668027573,3.0955667452,0.404902857733,3.0955667452,0.400278531151
Great Britain,50.7621,-1.93335,S6458,0,Knighton Heath,3.34150663326,5.77629595967,1.12557735914,5.77629595967,0.0513183398017
Great Britain,56.5931,-2.98694,S6459,0,Knockenny Farm,1.02698859453,1.5603060404,0.4014606368,1.5603060404,0.155570771676
Great Britain,51.9768,-2.50962,S6460,197,Lambscott,4.12194994207,4.57287045399,0.103778780586,4.57287045399,0.224370324464
Great Britain,52.5614,-3.03717,S6461,130,Lan Fawr,3.47427820754,3.81043571767,0.33868499893,3.81043571767,0.67518795324
Great Britain,52.0567,-0.831615,S6462,0,Lanting,4.82109712203,5.80825611758,0.0184481062714,5.80825611758,1.18205548653
Great Britain,53.0979,-2.28677,S6463,126,Lawton,3.71756678716,4.24833348862,1.11803279898,4.24833348862,0.484806551317
Great Britain,51.1538,-1.4323,S6464,98,Leckford Estate,3.79938457695,5.92747833239,0.843798555107,5.92747833239,0.238097425438
Great Britain,58.7884,-2.94971,S6465,0,Liddle Far,1.64554973775,1.97160462844,2.21374378468,1.97160462844,0.0251450850068
Great Britain,53.1151,-1.77438,S6466,16,Liffs Low,4.03381444577,4.72641024899,0.992995728188,4.72641024899,0.955189675457
Great Britain,53.3209,-2.27025,S6467,102,Lindow Moss,3.55236959645,4.19135014649,1.07771369231,4.19135014649,0.430639307309
Great Britain,51.7737,1.10973,S6468,4,Lion Point,4.51551398409,3.90436188671,1.13224888046,3.90436188671,0.0269223030218
Great Britain,52.538,0.35796,S6469,1,Littleport,5.13533305134,4.61319301019,0.0629280517734,4.61319301019,0.231907113517
Great Britain,52.3565,0.257215,S6470,1,Little Thetford,5.25185877098,4.71093737675,0.137942104613,4.71093737675,0.431108157688
Great Britain,51.7856,0.472214,S6471,39,Little Waltham,5.08855228132,4.53387000866,0.725908124074,4.53387000866,0.235668579908
Great Britain,53.218,-4.10751,S6472,90,Llandegai,2.35492489158,2.55482472567,1.05631782476,2.55482472567,0.0213472480662
Great Britain,56.4141,-3.53347,S6473,0,Loanleven,0.510577463271,1.25233826181,0.0806006960268,1.25233826181,0.215448546526
Great Britain,55.1052,-3.56602,S6474,380,Locharbriggs,1.35710986014,2.28519029809,0.346634831631,2.28519029809,0.109863432497
Great Britain,56.3882,-5.4186,S6475,484,Loch Nell,0.180174054736,0.701565395099,0.683331369249,0.701565395099,0.0369822146443
Great Britain,51.7507,0.706514,S6476,7,Loftsfarm,4.9121690842,4.30652619101,0.892098409648,4.30652619101,0.0267120264301
Great Britain,53.6097,-1.98941,S6477,8,Lominot,3.52979822338,4.38560864282,0.774635351117,4.38560864282,0.755740104136
Great Britain,50.8742,-0.676633,S6478,0,Long Down,3.75888833048,5.83984755268,1.12537332325,5.83984755268,0.120747181536
Great Britain,52.5521,-2.85404,S6479,137,Long Mynd,3.65640874319,3.97160037841,0.458973935317,3.97160037841,0.721494384247
Great Britain,51.7325,-5.11684,S6480,99,Longstone Field,1.9509646894,3.02537990765,1.74394600908,3.02537990765,0.0354599506486
Great Britain,52.539,-0.267775,S6481,0,Longville,5.45761322349,5.23859890137,0.224665351412,5.23859890137,0.445007767151
Great Britain,54.091,-0.284322,S6482,0,Low Claythorpe,4.48769910936,5.21618924051,0.589816573863,5.21618924051,0.0858514779372
Great Britain,53.3498,-1.8077,S6483,9,Mam Tor,3.84167692932,4.62673180906,0.861331175913,4.62673180906,0.892082219585
Great Britain,54.154,-2.76895,S6484,372,Manor Farm,2.59581919513,3.51152139028,0.609675906773,3.51152139028,0.0394980569142
Great Britain,51.5394,-0.501686,S6485,0,Mansfield Farm,4.44160844383,5.53267375672,0.595939753747,5.53267375672,0.74039267958
Great Britain,51.3367,1.37569,S6486,39,Manston,4.23308632985,3.73837438147,1.1833774193,3.73837438147,0.0100586480205
Great Britain,51.4963,0.276403,S6487,4,Mar Dyke,4.74007391731,4.77257135315,0.88358661207,4.77257135315,0.116433776152
Great Britain,50.7073,-2.43766,S6488,23,Maumbury Rings,3.28650711851,5.43986269551,0.937754435073,5.43986269551,0.0698021919427
Great Britain,51.6975,0.767002,S6489,2,Maylandsea,4.8664023894,4.25477445498,0.971093119069,4.25477445498,0.00788819396313
Great Britain,51.1758,-2.79402,S6490,104,Meare,3.79423249098,4.85851026262,0.459442459183,4.85851026262,0.212053285992
Great Britain,51.1469,-2.81497,S6491,105,Meare Heath,3.76913551257,4.86314729969,0.493193266175,4.86314729969,0.200330475964
Great Britain,51.174,-2.80115,S6492,82,Meare Lake,3.79360176008,4.85454825784,0.463207067519,4.85454825784,0.205487207388
Great Britain,52.8268,-3.4502,S6493,82,Melangell Church,3.02839478491,3.31952619405,0.388449743982,3.31952619405,0.48087586891
Great Britain,52.6877,-2.75163,S6494,64,Meole Brace,3.73834450165,3.99383312938,0.613761161121,3.99383312938,0.609515502182
Great Britain,52.4185,-1.98088,S6495,153,Merritts Brook,4.44469133461,4.801739954,0.758646530408,4.801739954,0.760481990385
Great Britain,52.5436,0.434965,S6496,2,Methwold Severals,5.05812469679,4.53644891668,0.108509706593,4.53644891668,0.230368699317
Great Britain,52.8652,-4.62234,S6497,395,Meyllteyrn,1.86082882483,2.3693293966,1.30296496499,2.3693293966,0.052547925744
Great Britain,51.1249,-1.25257,S6498,74,Micheldever Wood,3.81114635564,6.09132497134,0.838530581732,6.09132497134,0.266570015193
Great Britain,56.6495,-2.60348,S6499,0,Middle Brighty Farm,1.41181763741,1.87953468829,0.773836732199,1.87953468829,0.100605960062
Great Britain,50.7072,-2.46316,S6500,22,Middle Farm,3.28844396334,5.4216877293,0.93198209559,5.4216877293,0.0748225233469
Great Britain,57.8873,-4.32786,S6501,0,Migdale,0.179127844011,0.493211868673,1.18622251075,0.493211868673,0.0176673625649
Great Britain,50.8566,-0.226685,S6502,0,Mile Oak,3.93625138052,5.41106004593,1.29855542282,5.41106004593,0.0319204013916
Great Britain,55.5951,-2.09681,S6503,0,Milfield South,2.15846689166,2.86119548567,0.136313816248,2.86119548567,0.214260419117
Great Britain,55.5285,-1.86059,S6504,0,Millstone Hill,2.39938323717,3.08906774888,0.321433544298,3.08906774888,0.113317591309
Great Britain,51.3185,-1.71298,S6505,98,Milton Hill Farm,3.91709206611,5.60332574904,0.830976597745,5.60332574904,0.470174381693
Great Britain,52.051,-0.804045,S6506,0,Milton Keynes,4.82346477589,5.78103944209,0.0290380375542,5.78103944209,1.16665592384
Great Britain,51.75,-1.43354,S6507,138,Mingie Ditch,4.38506633387,5.60261407646,0.325337429756,5.60261407646,0.832489567502
Great Britain,52.8583,-4.10877,S6508,311,Mochras,2.37052587993,2.76282037319,0.83038484867,2.76282037319,0.0163150758503
Great Britain,50.9559,0.734104,S6509,12,Mockbeggar Rye,4.4634068448,4.46425142472,1.19942359429,4.46425142472,0.0378095601138
Great Britain,51.8691,-3.46131,S6510,104,Modrydd,3.26166694575,3.8977891157,0.26060810444,3.8977891157,0.434177648665
Great Britain,52.8647,-4.05468,S6511,134,Moel Gerddi Ardudwy,2.4234582762,2.80134667076,0.787416510876,2.80134667076,0.0552782054702
Great Britain,51.4608,-0.272471,S6512,0,Mortla,4.45758568857,5.31906000056,0.696743718408,5.31906000056,0.62952618697
Great Britain,56.4206,-2.86412,S6513,0,Morton,1.16175702559,1.75517327079,0.462604156596,1.75517327079,0.0256225389062
Great Britain,54.4852,-2,S6514,399,Moss Mire,2.91085218562,3.716244288,0.106176273244,3.716244288,0.762485502354
Great Britain,51.6665,-1.15548,S6515,80,Mount Farm,4.36018335674,5.88512555769,0.295807701049,5.88512555769,0.809641351834
Great Britain,51.5035,0.413682,S6516,29,Mucking,4.8161866091,4.63633341501,0.935248284898,4.63633341501,0.0375426701767
Great Britain,55.7398,-2.05575,S6517,0,Murton High Crags,2.13354233143,2.80682460756,0.0393604179348,2.80682460756,0.06876371136
Great Britain,55.9793,-3.66048,S6518,49,Myerhaed,0.700881443969,1.52066327058,0.47304299868,1.52066327058,0.0311895431194
Great Britain,52.8373,-4.62214,S6519,444,Mynydd Rhiw lleyn,1.86548298928,2.38882446647,1.29400536707,2.38882446647,0.027152688633
Great Britain,50.2693,-5.26166,S6520,0,Nancecuke,3.10926039316,4.01260321948,2.6422972136,4.01260321948,0.0554558581216
Great Britain,51.704,-3.57177,S6521,38,Nant,3.23074704045,3.9327216668,0.459028630589,3.9327216668,0.243193707978
Great Britain,53.3373,-3.39686,S6522,51,Nant Hall,2.93330894227,3.12889007148,0.89422914759,3.12889007148,0.0282842712475
Great Britain,51.218,-1.84535,S6523,128,Netheravon,3.80315453145,5.55656785116,0.912115786181,5.55656785116,0.483210068707
